     2.11           OBSERVATION DATA    Mixed(MIXED)        RINEX VERSION / TYPE
cnvtToRINEX 3.14.0  convertToRINEX OPR  20230925 142328 UTC PGM / RUN BY / DATE 
----------------------------------------------------------- COMMENT             
1                                                           MARKER NAME         
                                                            MARKER NUMBER       
GNSS Observer       Trimble                                 OBSERVER / AGENCY   
6311F00980          TRIMBLE R12i        6.21                REC # / TYPE / VERS 
                    TRMR12I         NONE                    ANT # / TYPE        
   110009.1625 -4346693.7466  4650946.4524                  APPROX POSITION XYZ 
        0.6596        0.0000        0.0000                  ANTENNA: DELTA H/E/N
     1     1     0                                          WAVELENGTH FACT L1/2
     9    C1    C2    C5    C8    L1    L2    L5    L8    P2# / TYPES OF OBSERV 
    15.000                                                  INTERVAL            
  2023     9    21    18    37   30.0000000     GPS         TIME OF FIRST OBS   
  2023     9    21    20    48    0.0000000     GPS         TIME OF LAST OBS    
     0                                                      RCV CLOCK OFFS APPL 
    18                                                      LEAP SECONDS        
    36                                                      # OF SATELLITES     
   E02   292     0     0   292   292     0     0   292     0PRN / # OF OBS      
   E03   499     0     0   499   499     0     0   499     0PRN / # OF OBS      
   E05   151     0     0   147   151     0     0   147     0PRN / # OF OBS      
   E07   279     0     0   279   279     0     0   279     0PRN / # OF OBS      
   E08   523     0     0   523   523     0     0   523     0PRN / # OF OBS      
   E13   523     0     0   523   523     0     0   523     0PRN / # OF OBS      
   E15   450     0     0   450   450     0     0   450     0PRN / # OF OBS      
   E24   353     0     0   354   350     0     0   354     0PRN / # OF OBS      
   E25   300     0     0   306   299     0     0   306     0PRN / # OF OBS      
   E26   386     0     0   386   386     0     0   386     0PRN / # OF OBS      
   E34    27     0     0    27    27     0     0    27     0PRN / # OF OBS      
   G02   523     0     0     0   523   523     0     0   523PRN / # OF OBS      
   G03    66    66    66     0    66    66    66     0     0PRN / # OF OBS      
   G10   523   523   523     0   523   523   523     0     0PRN / # OF OBS      
   G12   245   245     0     0   245   245     0     0     0PRN / # OF OBS      
   G18    36    36    36     0    36    36    36     0     0PRN / # OF OBS      
   G21   523     0     0     0   523   523     0     0   523PRN / # OF OBS      
   G23   403   403   403     0   403   403   403     0     0PRN / # OF OBS      
   G24   279   279   279     0   279   279   279     0     0PRN / # OF OBS      
   G25   353   334   347     0   352   334   347     0     0PRN / # OF OBS      
   G28   523   523   523     0   523   523   523     0     0PRN / # OF OBS      
   G31   292   292     0     0   292   292     0     0     0PRN / # OF OBS      
   G32   523   523   523     0   523   523   523     0     0PRN / # OF OBS      
   R01    75    75     0     0    75    75     0     0     0PRN / # OF OBS      
   R06   151     0     0     0   151     0     0     0     0PRN / # OF OBS      
   R07   523   523     0     0   523   523     0     0     0PRN / # OF OBS      
   R08   523   523     0     0   523   523     0     0     0PRN / # OF OBS      
   R09   523   523     0     0   523   523     0     0     0PRN / # OF OBS      
   R10   347     0     0     0   347     0     0     0     0PRN / # OF OBS      
   R11    19    19     0     0    19    19     0     0     0PRN / # OF OBS      
   R15    76    76     0     0    76    76     0     0     0PRN / # OF OBS      
   R16   473   466     0     0   473   465     0     0     0PRN / # OF OBS      
   R21    59    59     0     0    59    59     0     0     0PRN / # OF OBS      
   R22   324   324     0     0   324   324     0     0     0PRN / # OF OBS      
   R23   523     0     0     0   523     0     0     0     0PRN / # OF OBS      
   R24   339   339     0     0   339   339     0     0     0PRN / # OF OBS      
CARRIER PHASE MEASUREMENTS: PHASE SHIFTS REMOVED            COMMENT             
                                                            END OF HEADER       
 23  9 21 18 37 30.0000000  0 20E08E13E15G02G10G18G21G23G24G28G32R06
                                R07R08R09R15R16R21R22R23
  24809906.708 7                                                 130376938.98917
                                                
  24777885.674 6                                                 130208669.41016
                                                
  24136348.092 7                                                 126837364.11717
                                                
  24387748.419 5                                                 128158474.97615
  99863787.32356                                  24387756.72246
  20218156.697 8  20218164.857 9  20218158.062 9                 106247126.07718
  82790001.49719  79340392.45019                
  24217061.794 3  24217075.186 9  24217075.446 9                 127261504.09613
  99164858.26819  95032987.00519                
  23514726.943 5                                                 123570717.96015
  96288907.76657                                  23514733.99747
  21033888.273 6  21033895.245 9  21033893.749 9                 110533819.67816
  86130278.99219  82541515.14719                
  21931148.635 6  21931159.499 9  21931155.262 9                 115248958.93616
  89804429.06319  86062561.01219                
  24406697.544 5  24406709.753 9  24406710.700 9                 128258077.81015
  99941719.95819  95777183.88419                
  21398900.750 7  21398909.415 9  21398904.055 9                 112451980.66417
  87624960.66419  83973894.17319                
  20216349.410 3                                                 107878310.16413
                                                
  19759989.614 8  19759993.060 9                                 105776771.26718
  82270986.23219                                
  22874970.258 4  22874975.899 9                                 122494437.01414
  95273466.27119                                
  22518351.611 6  22518358.616 9                                 120246750.46116
  93525287.66019                                
  22912588.705 6  22912596.691 8                                 122437924.93216
  95229379.53518                                
  21083684.109 4  21083688.871 8                                 112625250.67314
  87597333.88518                                
  22727754.150 6  22727760.276 9                                 121620792.65716
  94593960.77319                                
  20390613.400 7  20390616.356 9                                 108846474.73717
  84658381.87119                                
  21638136.039 6                                                 115749451.48816
                                                
 23  9 21 18 37 45.0000000  0 20E08E13E15G02G10G18G21G23G24G28G32R06
                                R07R08R09R15R16R21R22R23
  24803846.691 7                                                 130345093.627 7
                                                
  24773703.511 6                                                 130186692.243 6
                                                
  24140690.766 7                                                 126860185.351 7
                                                
  24379397.449 4                                                 128114587.909 4
  99829589.66946                                  24379405.12646
  20215975.596 8  20215983.766 9  20215976.932 9                 106235664.969 8
  82781070.744 9  79331833.809 9                
  24227476.072 4  24227488.131 9  24227489.742 9                 127316228.827 4
  99207500.733 9  95073852.641 9                
  23508369.108 4                                                 123537310.311 4
  96262875.82946                                  23508376.65446
  21038730.973 7  21038738.002 9  21038736.623 9                 110559268.073 7
  86150108.889 9  82560518.767 9                
  21937177.409 6  21937188.205 9  21937183.769 9                 115280637.891 6
  89829113.942 9  86086217.341 9                
  24394809.072 5  24394820.967 9  24394821.817 9                 128195602.645 5
  99893038.166 9  95730530.485 9                
  21392845.804 7  21392854.263 9  21392849.146 9                 112420161.750 7
  87600166.722 9  83950133.320 9                
  20220798.416 3                                                 107902053.872 3
                                                
  19755924.673 8  19755928.435 9                                 105755012.115 8
  82254062.463 9                                
  22865545.403 2  22865551.961 9                                 122443971.316 2
  95234215.253 9                                
  22506295.873 6  22506302.904 9                                 120182373.782 6
  93475216.986 9                                
  22918893.929 6  22918901.902 8                                 122471620.224 6
  95255586.961 8                                
  21079803.618 5  21079808.265 8                                 112604522.951 5
  87581212.368 8                                
  22739508.604 6  22739515.381 9                                 121683692.237 6
  94642882.515 9                                
  20395252.006 7  20395255.070 9                                 108871236.268 7
  84677640.831 9                                
  21631120.812 6                                                 115711922.370 6
                                                
 23  9 21 18 38  0.0000000  0 20E08E13E15G02G10G18G21G23G24G28G32R06
                                R07R08R09R15R16R21R22R23
  24797787.776 7                                                 130313253.818 7
                                                
  24769532.915 6                                                 130164775.901 6
                                                
  24145043.812 7                                                 126883060.396 7
                                                
  24371052.669 5                                                 128070737.764 5
  99795420.71346                                  24371060.29646
  20213805.461 8  20213813.587 9  20213806.822 9                 106224260.919 8
  82772184.479 9  79323317.800 9                
  24237885.866 4  24237898.068 9  24237899.431 9                 127370933.489 4
  99250127.654 9  95114703.354 9                
  23502023.029 5                                                 123503958.689 5
  96236887.59947                                  23502029.55547
  21043582.853 6  21043590.295 9  21043589.067 9                 110584766.149 6
  86169977.482 9  82579559.512 9                
  21943221.626 6  21943232.210 9  21943227.881 9                 115312401.003 6
  89853864.381 9  86109936.500 9                
  24382915.167 5  24382927.060 9  24382928.025 9                 128133101.683 5
  99844336.206 9  95683857.827 9                
  21386797.614 7  21386806.191 9  21386800.826 9                 112388378.667 7
  87575400.688 9  83926399.210 9                
  20225253.760 3                                                 107925826.688 3
                                                
  19751867.950 8  19751870.988 9                                 105733294.821 8
  82237171.243 9                                
  22856120.162 3  22856124.520 9                                 122393492.340 3
  95194953.872 9                                
  22494243.035 6  22494250.531 9                                 120118013.721 6
  93425159.241 9                                
  22925220.841 5  22925228.789 8                                 122505429.780 5
  95281883.182 8                                
  21075952.977 5  21075957.405 8                                 112583951.139 5
  87565212.131 8                                
  22751263.070 6  22751269.400 9                                 121746591.628 6
  94691804.130 9                                
  20399917.578 7  20399920.676 9                                 108896141.741 7
  84697011.700 9                                
  21624130.958 6                                                 115674532.495 6
                                                
 23  9 21 18 38 15.0000000  0 20E08E13E15G02G10G18G21G23G24G28G32R06
                                R07R08R09R15R16R21R22R23
  24791730.735 7                                                 130281423.852 7
                                                
  24765374.888 6                                                 130142924.827 6
                                                
  24149407.764 7                                                 126905993.403 7
                                                
  24362716.319 5                                                 128026929.128 5
  99761284.13046                                  24362723.31746
  20211647.086 8  20211655.148 9  20211648.415 9                 106212918.417 8
  82763346.158 9  79314847.746 9                
  24248292.838 5  24248306.340 9  24248306.059 9                 127425622.127 5
  99292742.031 9  95155542.088 9                
  23495687.881 5                                                 123470667.672 5
  96210946.58347                                  23495694.89347
  21048445.098 6  21048452.524 9  21048451.543 9                 110610318.160 6
  86189888.105 9  82598640.513 9                
  21949282.573 6  21949293.500 9  21949289.050 9                 115344252.147 6
  89878683.453 9  86133721.430 9                
  24371017.654 5  24371029.841 9  24371030.197 9                 128070579.461 5
  99795617.705 9  95637169.297 9                
  21380757.424 7  21380765.536 9  21380760.540 9                 112356635.732 7
  87550665.950 9  83902695.093 9                
  20229715.450 3                                                 107949632.787 3
                                                
  19747819.030 8  19747822.861 9                                 105711623.521 8
  82220315.802 9                                
  22846690.472 4  22846696.175 8                                 122343004.474 4
  95155685.637 8                                
  22482194.498 6  22482201.845 9                                 120053675.204 6
  93375118.334 9                                
  22931570.505 5  22931578.787 8                                 122539357.579 5
  95308271.462 8                                
  21072130.783 5  21072136.102 8                                 112563539.716 5
  87549336.616 8                                
  22763018.041 6  22763024.285 9                                 121809494.851 6
  94740728.762 9                                
  20404611.065 7  20404613.823 9                                 108921195.186 7
  84716497.695 9                                
  21617168.390 6                                                 115637286.656 6
                                                
 23  9 21 18 38 30.0000000  0 20E08E13E15G02G10G18G21G23G24G28G32R06
                                R07R08R09R15R16R21R22R23
  24785674.977 7                                                 130249602.555 7
                                                
  24761228.788 6                                                 130121137.992 6
                                                
  24153782.493 7                                                 126928983.087 7
                                                
  24354387.516 6                                                 127983161.141 6
  99727179.24547                                  24354394.54047
  20209500.224 8  20209508.193 9  20209501.544 9                 106201636.497 8
  82754555.059 9  79306422.933 9                
  24258696.477 4  24258710.144 9  24258709.999 9                 127480293.206 4
  99335342.751 9  95196367.788 9                
  23489364.158 5                                                 123437436.203 5
  96185051.94347                                  23489370.94647
  21053317.841 7  21053325.079 9  21053323.799 9                 110635922.869 7
  86209839.796 9  82617760.875 9                
  21955360.432 6  21955371.054 9  21955366.359 9                 115376189.996 6
  89903570.021 9  86157571.079 9                
  24359115.868 5  24359127.586 9  24359128.613 9                 128008035.151 5
  99746882.008 9  95590464.251 9                
  21374724.183 7  21374732.795 9  21374727.573 9                 112324931.863 7
  87525961.667 9  83879020.161 9                
  20234182.487 3                                                 107973471.049 3
                                                
  19743779.689 8  19743783.007 9                                 105689997.431 8
  82203495.526 9                                
  22837260.578 5  22837266.764 8                                 122292506.776 5
  95116409.705 8                                
  22470149.662 6  22470156.789 9                                 119989357.703 6
  93325093.735 9                                
  22937940.850 5  22937949.674 8                                 122573401.692 5
  95334750.229 8                                
  21068339.719 5  21068345.282 8                                 112543287.951 5
  87533585.281 8                                
  22774773.457 6  22774780.162 9                                 121872400.125 6
  94789654.922 9                                
  20409331.674 7  20409335.152 9                                 108946395.159 7
  84736097.646 9                                
  21610232.442 6                                                 115600184.263 6
                                                
 23  9 21 18 38 45.0000000  0 21E08E13E15E24G02G10G18G21G23G24G28G32
                                R06R07R08R09R15R16R21R22R23
  24779621.189 7                                                 130217789.894 7
                                                
  24757094.820 6                                                 130099415.488 6
                                                
  24158167.964 7                                                 126952029.224 7
                                                
  27351416.843 5                                                 143732667.47915
                                                
  24346065.966 5                                                 127939433.933 5
  99693106.12147                                  24346073.45747
  20207365.064 8  20207372.807 9  20207366.133 9                 106190415.172 8
  82745811.167 9  79298043.366 9                
  24269096.445 4  24269110.168 9  24269110.460 9                 127534946.434 4
  99377929.459 9  95237180.021 9                
  23483051.912 5                                                 123404264.383 5
  96159203.82846                                  23483058.59646
  21058200.118 7  21058207.562 9  21058206.221 9                 110661580.148 7
  86229832.427 9  82636920.486 9                
  21961454.055 6  21961465.075 9  21961460.463 9                 115408214.007 6
  89928523.762 9  86181485.069 9                
  24347209.818 4  24347221.600 9  24347222.137 9                 127945468.974 4
  99698129.244 9  95543742.891 9                
  21368698.540 7  21368706.990 9  21368702.072 9                 112293266.981 7
  87501287.739 9  83855374.338 9                
  20238655.453 4                                                 107997341.148 4
                                                
  19739747.899 8  19739751.365 9                                 105668416.326 8
  82186710.248 9                                
  22827828.101 5  22827834.485 9                                 122241998.883 5
  95077125.868 9                                
  22458108.959 6  22458116.118 9                                 119925061.645 6
  93275085.827 9                                
  22944333.689 6  22944341.981 8                                 122607562.170 6
  95361319.387 8                                
  21064578.786 6  21064584.794 8                                 112523195.927 6
  87517958.147 8                                
  22786528.936 6  22786536.073 9                                 121935306.566 6
  94838582.067 9                                
  20414080.110 7  20414083.222 9                                 108971741.172 7
  84755811.189 9                                
  21603323.482 6                                                 115563225.485 6
                                                
 23  9 21 18 39  0.0000000  0 21E08E13E15E24G02G10G18G21G23G24G28G32
                                R06R07R08R09R15R16R21R22R23
  24773569.615 7                                                 130185987.628 7
                                                
  24752974.280 6                                                 130077759.191 6
                                                
  24162564.359 7                                                 126975133.419 7
                                                
  27347924.794 5                                                 143714314.749 5
                                                
  24337753.516 5                                                 127895749.619 5
  99659066.42747                                  24337760.57747
  20205241.538 8  20205249.528 9  20205242.684 9                 106179256.543 8
  82737116.121 9  79289710.619 9                
  24279493.633 4  24279507.198 9  24279507.581 9                 127589583.078 4
  99420503.338 9  95277979.943 9                
  23476751.084 5                                                 123371154.214 5
  96133403.73247                                  23476758.12947
  21063092.904 6  21063100.652 9  21063099.070 9                 110687291.669 6
  86249867.341 9  82656120.615 9                
  21967564.958 5  21967576.246 9  21967571.187 9                 115440325.623 5
  89953545.779 9  86205464.492 9                
  24335299.661 4  24335311.915 9  24335312.560 9                 127882883.016 4
  99649361.075 9  95497006.721 9                
  21362680.655 7  21362688.952 9  21362684.177 9                 112261642.945 7
  87476645.647 9  83831759.010 9                
  20243135.568 4                                                 108021244.983 4
                                                
  19735725.464 8  19735728.990 9                                 105646882.198 8
  82169961.477 9                                
  22818394.487 5  22818400.766 8                                 122191482.812 5
  95037835.640 8                                
  22446073.236 6  22446079.486 9                                 119860789.349 6
  93225096.312 9                                
  22950748.709 5  22950757.770 8                                 122641840.048 5
  95387979.940 8                                
  21060847.377 6  21060852.458 8                                 112503265.580 6
  87502456.779 8                                
  22798285.207 6  22798291.993 9                                 121998215.748 6
  94887511.237 9                                
  20418856.064 7  20418859.020 9                                 108997234.660 7
  84775639.426 9                                
  21596441.598 6                                                 115526412.757 6
                                                
 23  9 21 18 39 15.0000000  0 21E08E13E15E24G02G10G18G21G23G24G28G32
                                R06R07R08R09R15R16R21R22R23
  24767519.537 7                                                 130154195.324 7
                                                
  24748865.763 6                                                 130056168.832 6
                                                
  24166972.399 7                                                 126998295.077 7
                                                
  27344444.267 5                                                 143696025.274 5
                                                
  24329448.522 5                                                 127852108.097 5
  99625060.06847                                  24329455.86147
  20203129.786 8  20203137.785 9  20203131.206 9                 106168160.113 8
  82728469.557 9  79281424.327 9                
  24289887.084 4  24289900.841 9  24289901.467 9                 127644202.512 4
  99463063.761 9  95318766.986 9                
  23470462.072 4                                                 123338105.481 4
  96107651.49247                                  23470469.06747
  21067996.256 6  21068003.559 9  21068002.116 9                 110713056.945 6
  86269944.148 9  82675360.886 9                
  21973691.927 5  21973703.378 9  21973698.171 9                 115472524.127 5
  89978635.457 9  86229508.771 9                
  24323386.148 4  24323398.606 9  24323399.246 9                 127820277.082 4
  99600577.362 9  95450255.673 9                
  21356670.396 7  21356678.919 9  21356674.011 9                 112230059.313 7
  87452035.055 9  83808173.857 9                
  20247621.043 3                                                 108045181.713 3
                                                
  19731711.206 8  19731715.259 9                                 105625394.481 8
  82153248.820 9                                
  22808960.020 5  22808965.260 9                                 122140958.195 5
  94998538.747 9                                
  22434041.169 6  22434047.786 9                                 119796541.074 6
  93175125.561 9                                
  22957184.869 4  22957194.071 8                                 122676234.438 4
  95414731.038 8                                
  21057146.787 5  21057152.339 8                                 112483496.605 5
  87487080.952 8                                
  22810041.664 6  22810048.811 9                                 122061126.506 6
  94936441.703 9                                
  20423659.056 7  20423662.082 9                                 109022874.777 7
  84795581.739 9                                
  21589587.004 6                                                 115489745.843 6
                                                
 23  9 21 18 39 30.0000000  0 21E08E13E15E24G02G10G18G21G23G24G28G32
                                R06R07R08R09R15R16R21R22R23
  24761471.539 7                                                 130122410.538 7
                                                
  24744769.174 6                                                 130034642.097 6
                                                
  24171390.388 7                                                 127021511.642 7
                                                
  27340975.573 6                                                 143677796.835 6
                                                
  24321151.736 5                                                 127808507.002 5
  99591085.22947                                  24321158.64847
  20201029.778 8  20201037.621 9  20201031.051 9                 106157123.512 8
  82719869.609 9  79273182.716 9                
  24300277.733 5  24300290.939 9  24300291.263 8                 127698801.843 5
  99505608.544 9  95359539.053 8                
  23464183.985 5                                                 123305116.001 5
  96081945.41647                                  23464191.06847
  21072908.802 6  21072915.972 9  21072914.895 9                 110738873.451 6
  86290060.876 9  82694639.409 9                
  21979835.362 6  21979846.367 9  21979841.204 9                 115504806.702 6
  90003790.676 9  86253615.843 9                
  24311468.457 4  24311480.397 9  24311481.666 9                 127757649.067 4
  99551776.431 9  95403488.131 9                
  21350667.301 7  21350675.931 9  21350670.898 9                 112198513.699 7
  87427454.080 9  83784617.092 9                
  20252112.875 4                                                 108069148.863 4
                                                
  19727705.143 8  19727709.182 9                                 105603950.595 8
  82136570.248 9                                
  22799522.499 5  22799528.571 8                                 122090422.539 5
  94959233.354 8                                
  22422014.155 6  22422020.661 9                                 119732314.863 6
  93125171.965 9                                
  22963642.849 5  22963651.491 8                                 122710742.506 5
  95441570.592 8                                
  21053475.552 4  21053481.000 8                                 112463886.866 4
  87471828.986 8                                
  22821797.956 6  22821805.297 9                                 122124036.005 6
  94985371.144 9                                
  20428489.365 8  20428492.536 9                                 109048658.711 8
  84815635.862 9                                
  21582759.667 6                                                 115453222.521 6
                                                
 23  9 21 18 39 45.0000000  0 21E08E13E15E24G02G10G18G21G23G24G28G32
                                R06R07R08R09R15R16R21R22R23
  24755424.896 7                                                 130090636.202 7
                                                
  24740685.615 6                                                 130013182.029 6
                                                
  24175819.382 7                                                 127044785.874 7
                                                
  27337518.640 6                                                 143659632.381 6
                                                
  24312863.015 4                                                 127764949.729 4
  99557144.51946                                  24312869.45646
  20198941.561 8  20198949.440 9  20198942.834 9                 106146149.813 8
  82711318.665 9  79264988.072 9                
  24310664.309 5  24310678.318 9  24310678.104 8                 127753383.789 5
  99548139.768 9  95400298.146 8                
  23457918.372 5                                                 123272188.795 5
  96056287.90647                                  23457925.50847
  21077831.521 6  21077839.085 9  21077837.492 9                 110764744.034 6
  86310219.752 9  82713958.329 9                
  21985994.988 6  21986006.224 9  21986000.987 9                 115537175.918 6
  90029013.428 9  86277787.633 9                
  24299546.840 5  24299559.319 9  24299560.353 9                 127695002.152 5
  99502960.776 9  95356706.493 9                
  21344672.099 7  21344681.059 9  21344675.719 9                 112167009.028 7
  87402904.993 9  83761090.903 9                
  20256610.791 3                                                 108093149.145 3
                                                
  19723708.321 8  19723712.009 9                                 105582553.787 8
  82119928.288 9                                
  22790083.985 5  22790089.390 8                                 122039878.682 5
  94919921.515 8                                
  22409990.914 6  22409997.744 9                                 119668113.889 6
  93075238.019 9                                
  22970122.337 5  22970130.641 8                                 122745366.797 5
  95468500.554 8                                
  21049834.358 5  21049841.136 8                                 112444439.556 5
  87456703.345 8                                
  22833554.148 6  22833560.963 9                                 122186946.432 6
  95034301.305 9                                
  20433346.975 7  20433350.257 9                                 109074589.005 7
  84835803.875 9                                
  21575959.410 6                                                 115416846.233 6
                                                
 23  9 21 18 40  0.0000000  0 22E08E13E15E24E25G02G10G18G21G23G24G28
                                G32R06R07R08R09R15R16R21R22R23
  24749380.081 7                                                 130058869.659 7
                                                
  24736614.433 6                                                 129991786.138 6
                                                
  24180258.768 7                                                 127068114.965 7
                                                
  27334073.797 6                                                 143641529.402 6
                                                
  27620612.610 4                                                 145147296.75914
                                                
  24304582.281 5                                                 127721433.848 5
  99523236.09147                                  24304588.68047
  20196864.654 8  20196872.565 9  20196866.256 9                 106135236.578 8
  82702814.847 9  79256838.581 9                
  24321047.257 5  24321061.141 9  24321060.875 8                 127807945.274 5
  99590655.052 9  95441041.972 8                
  23451663.772 5                                                 123239321.348 5
  96030676.94747                                  23451670.96447
  21082764.598 6  21082772.085 9  21082770.393 9                 110790666.010 6
  86330418.667 9  82733315.604 9                
  21992170.743 6  21992181.662 9  21992176.690 9                 115569628.827 6
  90054301.355 9  86302021.894 9                
  24287621.364 4  24287633.742 9  24287634.728 9                 127632334.008 4
  99454128.588 9  95309909.003 9                
  21338684.582 7  21338693.077 9  21338687.847 9                 112135542.689 7
  87378385.783 9  83737593.332 9                
  20261114.136 3                                                 108117180.190 3
                                                
  19719719.252 8  19719723.262 9                                 105561201.202 8
  82103320.729 9                                
  22780642.837 5  22780648.280 9                                 121989324.354 5
  94880601.545 9                                
  22397972.447 6  22397979.765 9                                 119603936.109 6
  93025322.117 9                                
  22976622.805 5  22976631.756 8                                 122780104.332 5
  95495518.628 8                                
  21046224.030 4  21046229.046 8                                 112425152.165 4
  87441702.053 8                                
  22845310.153 6  22845317.999 9                                 122249854.520 6
  95083229.687 9                                
  20438231.625 8  20438234.881 9                                 109100662.641 8
  84856083.326 9                                
  21569186.224 6                                                 115380614.589 6
                                                
 23  9 21 18 40 15.0000000  0 22E08E13E15E24E25G02G10G18G21G23G24G28
                                G32R06R07R08R09R15R16R21R22R23
  24743336.381 7                                                 130027113.048 7
                                                
  24732555.361 6                                                 129970456.683 6
                                                
  24184709.080 7                                                 127091500.896 7
                                                
  27330641.215 6                                                 143623490.156 6
                                                
  27612257.584 4                                                 145103392.399 4
                                                
  24296310.155 5                                                 127677961.686 5
  99489361.75847                                  24296316.76147
  20194799.959 7  20194808.013 9  20194801.616 9                 106124386.084 7
  82694359.925 9  79248735.938 9                
  24331426.885 5  24331440.211 9  24331440.521 9                 127862488.083 5
  99633155.800 9  95481771.816 9                
  23445421.307 5                                                 123206516.070 5
  96005114.42147                                  23445428.63947
  21087707.239 6  21087715.157 9  21087713.980 9                 110816641.362 6
  86350659.179 9  82752712.755 9                
  21998362.790 6  21998373.249 9  21998368.667 9                 115602167.188 6
  90079655.894 9  86326319.991 9                
  24275692.154 4  24275704.281 9  24275705.718 9                 127569647.022 4
  99405281.713 9  95263097.436 9                
  21332704.442 7  21332713.165 9  21332707.886 9                 112104116.840 7
  87353898.150 9  83714126.004 9                
  20265623.073 3                                                 108141243.662 3
                                                
  19715739.273 8  19715743.203 9                                 105539895.018 8
  82086749.274 9                                
  22771200.929 5  22771206.263 8                                 121938761.441 5
  94841274.899 8                                
  22385958.558 6  22385965.972 9                                 119539784.449 6
  92975426.517 9                                
  22983145.335 5  22983153.432 8                                 122814956.790 5
  95522626.022 8                                
  21042643.629 1  21042649.793 8                                 112406026.802 1
  87426826.868 8                                
  22857065.934 6  22857073.100 9                                 122312762.159 6
  95132157.719 9                                
  20443143.486 8  20443146.572 9                                 109126881.360 8
  84876475.639 9                                
  21562440.236 6                                                 115344530.028 6
                                                
 23  9 21 18 40 30.0000000  0 22E08E13E15E24E25G02G10G18G21G23G24G28
                                G32R06R07R08R09R15R16R21R22R23
  24737296.083 7                                                 129995370.860 7
                                                
  24728509.861 6                                                 129949198.298 6
                                                
  24189170.675 7                                                 127114948.009 7
                                                
  27327221.086 6                                                 143605519.230 6
                                                
  27603902.009 4                                                 145059485.117 4
                                                
  24288046.472 5                                                 127634538.037 5
  99455525.19747                                  24288053.76947
  20192748.052 8  20192755.942 9  20192749.654 9                 106113602.951 8
  82685957.486 9  79240683.603 9                
  24341803.253 4  24341816.477 8  24341816.776 9                 127917016.433 4
  99675645.259 8  95522490.836 9                
  23439191.580 6                                                 123173777.769 6
  95979604.09547                                  23439198.60047
  21092661.442 6  21092669.136 9  21092667.776 9                 110842674.560 6
  86370944.766 9  82772153.097 9                
  22004571.558 6  22004582.167 9  22004577.303 9                 115634795.143 6
  90105080.249 9  86350684.995 9                
  24263760.789 4  24263772.874 9  24263773.989 9                 127506946.004 4
  99356423.891 9  95216275.384 9                
  21326732.782 7  21326741.527 9  21326736.217 9                 112072736.048 7
  87329445.577 9  83690692.320 9                
  20270139.916 3                                                 108165344.193 3
                                                
  19711768.398 8  19711772.242 9                                 105518639.781 8
  82070217.428 9                                
  22761757.707 5  22761762.287 9                                 121888194.964 5
  94801945.498 9                                
  22373950.339 5  22373957.118 9                                 119475663.860 5
  92925555.066 9                                
  22989689.941 5  22989697.930 8                                 122849928.177 5
  95549825.965 8                                
  21039094.873 2  21039099.042 8                                 112387068.652 2
  87412081.563 8                                
  22868822.771 6  22868830.391 9                                 122375673.110 6
  95181088.334 9                                
  20448082.808 8  20448086.050 9                                 109153249.383 8
  84896984.098 9                                
  21555723.149 6                                                 115308597.762 6
                                                
 23  9 21 18 40 45.0000000  0 22E08E13E15E24E25G02G10G18G21G23G24G28
                                G32R06R07R08R09R15R16R21R22R23
  24731259.150 7                                                 129963645.577 7
                                                
  24724478.702 6                                                 129928013.552 6
                                                
  24193644.742 7                                                 127138458.651 7
                                                
  27323814.596 6                                                 143587619.317 6
                                                
  27595546.504 4                                                 145015577.589 4
                                                
  24279792.820 5                                                 127591165.663 5
  99421728.60347                                  24279800.52247
  20190709.256 8  20190717.379 9  20190710.919 9                 106102889.622 8
  82677609.430 9  79232683.383 9                
  24352177.608 3  24352190.545 8  24352190.771 8                 127971532.478 3
  99718125.141 8  95563200.682 8                
  23432974.835 6                                                 123141109.088 6
  95954147.99647                                  23432981.81347
  21097626.565 6  21097634.438 9  21097633.211 9                 110868767.980 6
  86391277.263 9  82791638.410 9                
  22010798.021 6  22010808.818 9  22010804.118 9                 115667514.851 6
  90130576.094 9  86375118.513 9                
  24251826.659 4  24251839.273 9  24251840.241 9                 127444233.699 4
  99307557.308 9  95169444.943 9                
  21320770.292 7  21320779.111 9  21320773.707 9                 112041402.665 7
  87305029.968 9  83667294.028 9                
  20274663.745 3                                                 108189484.085 3
                                                
  19707807.690 8  19707812.054 9                                 105497438.346 8
  82053727.438 9                                
  22752314.492 5  22752319.971 9                                 121837627.104 5
  94762615.008 9                                
  22361949.026 5  22361955.874 9                                 119411577.518 5
  92875710.259 9                                
  22996256.685 5  22996265.312 8                                 122885020.702 5
  95577120.078 8                                
  21035577.895 1  21035583.145 8                                 112368280.249 1
  87397468.438 8                                
  22880580.197 6  22880587.724 9                                 122438589.434 6
  95230023.092 9                                
  20453050.866 8  20453054.245 9                                 109179768.794 8
  84917610.262 9                                
  21549035.141 6                                                 115272820.514 6
                                                
 23  9 21 18 41  0.0000000  0 22E08E13E15E24E25G02G10G18G21G23G24G28
                                G32R06R07R08R09R15R16R21R22R23
  24725224.346 7                                                 129931932.799 7
                                                
  24720460.517 6                                                 129906898.215 6
                                                
  24198129.797 7                                                 127162028.225 7
                                                
  27320421.036 5                                                 143569785.998 5
                                                
  27587190.533 5                                                 144971665.719 5
                                                
  24271547.977 5                                                 127547840.489 5
  99387968.79147                                  24271555.79747
  20188683.082 8  20188691.348 9  20188684.696 9                 106092241.963 8
  82669312.535 9  79224732.202 9                
  24362548.671 2  24362561.397 8  24362562.328 9                 128026031.422 2
  99760591.728 8  95603897.775 9                
  23426770.352 5                                                 123108505.789 5
  95928742.88447                                  23426777.71147
  21102603.060 6  21102610.447 9  21102609.366 9                 110894917.133 6
  86411653.188 9  82811165.327 9                
  22017041.078 6  22017051.707 9  22017046.862 9                 115700321.553 6
  90156139.716 9  86399616.965 9                
  24239890.628 3  24239902.558 9  24239903.437 9                 127381505.981 3
  99258678.743 9  95122603.004 9                
  21314815.948 7  21314824.871 9  21314819.298 9                 112010112.541 7
  87280648.064 9  83643928.050 9                
  20279193.883 3                                                 108213658.853 3
                                                
  19703856.406 8  19703860.376 9                                 105476286.061 8
  82037275.648 9                                
  22742870.058 5  22742874.876 8                                 121787053.676 5
  94723280.167 8                                
  22349953.594 6  22349960.815 9                                 119347521.493 6
  92825889.061 9                                
  23002845.148 4  23002854.395 8                                 122920229.373 4
  95604504.577 8                                
  21032091.725 4  21032096.982 7                                 112349657.549 4
  87382984.141 7                                
  22892337.509 6  22892344.712 9                                 122501506.146 6
  95278958.167 9                                
  20458046.222 8  20458049.363 9                                 109206434.928 8
  84938350.574 9                                
  21542375.185 6                                                 115237193.902 6
                                                
 23  9 21 18 41 15.0000000  0 22E08E13E15E24E25G02G10G18G21G23G24G28
                                G32R06R07R08R09R15R16R21R22R23
  24719192.014 7                                                 129900232.473 7
                                                
  24716455.584 6                                                 129885852.354 6
                                                
  24202625.927 7                                                 127185656.534 7
                                                
  27317040.310 6                                                 143552019.383 6
                                                
  27578833.821 6                                                 144927749.712 6
                                                
  24263313.171 5                                                 127504562.552 5
  99354245.75647                                  24263319.71747
  20186669.709 8  20186677.527 9  20186671.091 9                 106081660.101 8
  82661066.946 9  79216830.168 9                
  24372916.078 2  24372929.549 9  24372929.789 9                 128080512.968 2
  99803044.698 9  95644581.826 9                
  23420578.766 5                                                 123075968.086 5
  95903388.86247                                  23420586.18747
  21107589.274 6  21107596.870 9  21107595.945 9                 110921121.917 6
  86432072.461 9  82830733.797 9                
  22023300.456 6  22023311.088 9  22023306.291 9                 115733214.852 6
  90181770.832 9  86424180.123 9                
  24227950.741 4  24227962.699 9  24227963.528 9                 127318763.139 4
  99209788.328 9  95075749.738 9                
  21308870.027 7  21308878.534 9  21308873.203 9                 111978865.569 7
  87256299.801 9  83620594.293 9                
  20283730.815 4                                                 108237868.251 4
                                                
  19699914.221 8  19699918.201 9                                 105455182.899 8
  82020862.088 9                                
  22733423.944 5  22733430.276 9                                 121736474.684 5
  94683941.071 9                                
  22337963.507 6  22337970.572 9                                 119283496.059 6
  92776091.632 9                                
  23009456.555 5  23009465.289 7                                 122955553.968 5
  95631979.176 7                                
  21028635.899 4  21028641.138 8                                 112331200.606 4
  87368628.770 8                                
  22904095.083 6  22904101.865 9                                 122564422.630 6
  95327893.081 9                                
  20463069.400 7  20463072.152 9                                 109233247.116 7
  84959204.473 9                                
  21535743.338 6                                                 115201718.664 6
                                                
 23  9 21 18 41 30.0000000  0 22E08E13E15E24E25G02G10G18G21G23G24G28
                                G32R06R07R08R09R15R16R21R22R23
  24713162.255 7                                                 129868546.700 7
                                                
  24712464.313 6                                                 129864878.210 6
                                                
  24207133.987 7                                                 127209345.563 7
                                                
  27313672.413 6                                                 143534321.701 6
                                                
  27570476.868 6                                                 144883831.940 6
                                                
  24255086.752 6                                                 127461334.398 6
  99320561.54947                                  24255092.79947
  20184668.747 8  20184676.682 9  20184670.348 9                 106071146.247 8
  82652874.332 9  79208978.915 9                
  24383280.562 3  24383293.700 8  24383294.580 9                 128134978.819 3
  99845485.441 8  95685254.173 9                
  23414400.237 5                                                 123043498.098 5
  95878087.61347                                  23414407.28647
  21112586.993 6  21112594.613 9  21112593.592 9                 110947384.369 6
  86452536.677 9  82850345.330 9                
  22029576.518 6  22029587.503 9  22029582.656 9                 115766196.515 6
  90207470.808 9  86448809.255 9                
  24216008.769 4  24216020.459 9  24216021.137 9                 127256007.528 4
  99160888.006 9  95028886.950 9                
  21302932.520 7  21302941.194 9  21302935.684 9                 111947663.883 7
  87231986.808 9  83597294.349 9                
  20288274.622 3                                                 108262114.373 3
                                                
  19695981.465 8  19695985.676 9                                 105434130.968 8
  82004488.382 9                                
  22723978.375 6  22723984.648 9                                 121685892.290 6
  94644599.259 9                                
  22325979.964 6  22325986.190 9                                 119219503.983 6
  92726320.134 9                                
  23016088.970 5  23016097.222 8                                 122990995.835 5
  95659545.017 8                                
  21025212.005 5  21025217.834 8                                 112312911.534 5
  87354403.948 8                                
  22915852.560 5  22915859.964 9                                 122627340.396 5
  95376829.012 9                                
  20468119.298 7  20468122.722 9                                 109260207.109 7
  84980173.325 9                                
  21529140.359 6                                                 115166397.012 6
                                                
 23  9 21 18 41 45.0000000  0 22E08E13E15E24E25G02G10G18G21G23G24G28
                                G32R06R07R08R09R15R16R21R22R23
  24707136.219 7                                                 129836878.642 7
                                                
  24708487.010 6                                                 129843979.066 6
                                                
  24211654.137 7                                                 127233098.289 7
                                                
  27310318.045 5                                                 143516696.229 5
                                                
  27562119.787 6                                                 144839915.762 6
                                                
  24246870.581 6                                                 127418159.405 6
  99286918.74547                                  24246877.28147
  20182681.825 8  20182689.752 9  20182683.107 9                 106060703.628 8
  82644737.224 9  79201180.860 9                
  24393642.595 4  24393655.880 8  24393656.728 9                 128189431.795 4
  99887916.228 8  95725916.918 9                
  23408234.379 5                                                 123011099.334 5
  95852841.83547                                  23408242.36847
  21117596.498 6  21117603.690 9  21117602.651 9                 110973707.521 6
  86473048.202 9  82870002.199 9                
  22035870.179 6  22035881.275 9  22035876.236 9                 115799269.393 6
  90233241.822 9  86473506.493 9                
  24204064.545 3  24204076.322 9  24204077.339 9                 127193242.630 3
  99111980.423 9  94982017.196 9                
  21297004.126 7  21297013.053 9  21297007.327 9                 111916510.662 7
  87207711.582 9  83574030.600 9                
  20292826.044 4                                                 108286400.342 4
                                                
  19692058.898 8  19692062.355 9                                 105413133.575 8
  81988157.062 9                                
  22714532.054 5  22714538.125 9                                 121635309.300 5
  94605257.037 9                                
  22314002.772 6  22314009.616 9                                 119155548.945 6
  92676577.463 9                                
  23022743.751 4  23022752.615 8                                 123026557.926 4
  95687204.366 8                                
  21021821.268 6  21021825.840 8                                 112294793.691 6
  87340312.267 8                                
  22927611.727 6  22927619.274 9                                 122690262.268 6
  95425768.063 9                                
  20473198.456 7  20473201.563 9                                 109287317.872 7
  85001259.421 9                                
  21522566.595 6                                                 115131232.685 6
                                                
 23  9 21 18 42  0.0000000  0 22E08E13E15E24E25G02G10G18G21G23G24G28
                                G32R06R07R08R09R15R16R21R22R23
  24701113.555 6                                                 129805231.296 6
                                                
  24704524.786 6                                                 129823158.054 6
                                                
  24216186.391 7                                                 127256917.539 7
                                                
  27306978.474 5                                                 143499146.047 5
                                                
  27553763.324 6                                                 144796004.427 6
                                                
  24238665.559 6                                                 127375040.775 6
  99253319.87047                                  24238671.78047
  20180708.648 8  20180716.538 9  20180710.158 9                 106050335.210 8
  82636657.917 9  79193438.187 9                
  24404002.688 4  24404016.573 8  24404017.155 9                 128243874.573 4
  99930339.008 8  95766572.045 9                
  23402083.291 5                                                 122978774.938 5
  95827654.02647                                  23402091.06847
  21122617.442 6  21122624.829 9  21122624.054 9                 111000094.323 6
  86493609.312 9  82889706.589 9                
  22042181.561 6  22042192.472 9  22042187.617 9                 115832436.053 6
  90259085.951 9  86498273.768 9                
  24192119.370 4  24192131.138 9  24192132.569 9                 127130471.627 4
  99063068.108 9  94935142.924 9                
  21291085.548 7  21291094.661 9  21291089.020 9                 111885408.896 7
  87183476.470 9  83550805.279 9                
  20297385.105 4                                                 108310728.949 4
                                                
  19688147.311 8  19688151.275 9                                 105392193.707 8
  81971870.525 9                                
  22705087.390 5  22705092.634 9                                 121584729.457 5
  94565917.224 9                                
  22302033.351 6  22302040.549 9                                 119091634.615 6
  92626866.456 9                                
  23029421.663 5  23029430.703 7                                 123062242.954 5
  95714959.310 7                                
  21018461.618 6  21018466.797 8                                 112276850.385 6
  87326356.314 8                                
  22939371.302 6  22939378.171 9                                 122753190.502 6
  95474712.089 9                                
  20478306.010 7  20478309.477 9                                 109314581.967 7
  85022464.799 9                                
  21516023.090 6                                                 115096228.965 6
                                                
