     2.11           OBSERVATION DATA    Mixed(MIXED)        RINEX VERSION / TYPE
cnvtToRINEX 3.14.0  convertToRINEX OPR  20230925 142301 UTC PGM / RUN BY / DATE 
----------------------------------------------------------- COMMENT             
seiler pk                                                   MARKER NAME         
                                                            MARKER NUMBER       
GNSS Observer       Trimble                                 OBSERVER / AGENCY   
6309F01896          TRIMBLE R12i        6.21                REC # / TYPE / VERS 
                    TRMR12I         NONE                    ANT # / TYPE        
   110519.3958 -4346849.5191  4650782.4918                  APPROX POSITION XYZ 
        2.0500        0.0000        0.0000                  ANTENNA: DELTA H/E/N
     1     1     0                                          WAVELENGTH FACT L1/2
     9    C1    C2    C5    C8    L1    L2    L5    L8    P2# / TYPES OF OBSERV 
    15.000                                                  INTERVAL            
  2023     9    21    18    36   30.0000000     GPS         TIME OF FIRST OBS   
  2023     9    21    20    47    0.0000000     GPS         TIME OF LAST OBS    
     0                                                      RCV CLOCK OFFS APPL 
    18                                                      LEAP SECONDS        
    35                                                      # OF SATELLITES     
   E02   268     0     0   268   268     0     0   268     0PRN / # OF OBS      
   E03   523     0     0   523   523     0     0   523     0PRN / # OF OBS      
   E05   159     0     0   164   158     0     0   164     0PRN / # OF OBS      
   E07   274     0     0   274   274     0     0   274     0PRN / # OF OBS      
   E08   523     0     0   523   523     0     0   523     0PRN / # OF OBS      
   E13   523     0     0   523   523     0     0   523     0PRN / # OF OBS      
   E15   411     0     0   411   411     0     0   411     0PRN / # OF OBS      
   E24   242     0     0   233   242     0     0   233     0PRN / # OF OBS      
   E25   481     0     0   480   481     0     0   480     0PRN / # OF OBS      
   E26   334     0     0   328   334     0     0   328     0PRN / # OF OBS      
   E34    34     0     0    34    33     0     0    34     0PRN / # OF OBS      
   G02   523     0     0     0   523   523     0     0   523PRN / # OF OBS      
   G03    61    61    61     0    61    61    61     0     0PRN / # OF OBS      
   G10   523   523   523     0   522   523   523     0     0PRN / # OF OBS      
   G12   469   462     0     0   459   462     0     0     0PRN / # OF OBS      
   G18    25    36    36     0    23    36    36     0     0PRN / # OF OBS      
   G21   523     0     0     0   523   523     0     0   523PRN / # OF OBS      
   G23   407   407   407     0   406   407   407     0     0PRN / # OF OBS      
   G24   220   206   215     0   218   206   215     0     0PRN / # OF OBS      
   G25   378   378   378     0   376   378   378     0     0PRN / # OF OBS      
   G28   493   493   493     0   493   493   493     0     0PRN / # OF OBS      
   G31   250   250     0     0   250   250     0     0     0PRN / # OF OBS      
   G32   523   523   523     0   522   523   523     0     0PRN / # OF OBS      
   R01    69    68     0     0    69    68     0     0     0PRN / # OF OBS      
   R06   358     0     0     0   358     0     0     0     0PRN / # OF OBS      
   R07   523   523     0     0   523   523     0     0     0PRN / # OF OBS      
   R08   523   523     0     0   523   523     0     0     0PRN / # OF OBS      
   R09   523   523     0     0   523   523     0     0     0PRN / # OF OBS      
   R10   339     0     0     0   339     0     0     0     0PRN / # OF OBS      
   R15    70    67     0     0    69    67     0     0     0PRN / # OF OBS      
   R16   476   473     0     0   476   473     0     0     0PRN / # OF OBS      
   R21    55    49     0     0    55    49     0     0     0PRN / # OF OBS      
   R22   322   320     0     0   322   320     0     0     0PRN / # OF OBS      
   R23   523     0     0     0   523     0     0     0     0PRN / # OF OBS      
   R24   296   245     0     0   292   242     0     0     0PRN / # OF OBS      
CARRIER PHASE MEASUREMENTS: PHASE SHIFTS REMOVED            COMMENT             
                                                            END OF HEADER       
 23  9 21 18 36 30.0000000  0 22E03E05E08E13E15E34G02G10G18G21G23G24
                                G32R06R07R08R09R15R16R21R22R23
  23267676.354 7                                                 122272468.66317
                                                
  25997631.954 4                                                 136618477.65214
                                                
  24909156.650 7                                                 130898499.64017
                                                
  24869829.021 6                                                 130691835.94616
                                                
  24193825.458 7                                                 127139411.80717
                                                
  27299211.602 5                                                 143458316.53115
                                                
  24496397.062 3                                                 128729410.98313
 100308679.14456                                  24496405.66946
  20301728.334 8  20301735.634 9  20301730.684 9                
  83132220.89619  79668452.19319                
  24249743.988 5  24249755.612 8  24249757.102 9                
  99298698.18418  95161249.01619                
  23615432.824 5                                                 124099933.73015
  96701278.88557                                  23615440.63547
  21088968.040 6  21088974.741 9  21088974.407 9                
  86355844.41319  82757566.07819                
  21981653.262 5  21981664.174 9  21981659.987 9                
  90011246.73219  86260630.01519                
  21498138.403 7  21498147.467 9  21498142.349 9                
  88031327.51019  84363324.41019                
  20273125.172 3                                                 108181280.46713
                                                
  19851304.800 8  19851307.964 9                                 106265587.93818
  82651025.59219                                
  22987836.073 3  22987842.850 9                                 123098824.47713
  95743560.19819                                
  22640816.596 5  22640823.904 9                                 120900712.53115
  94033918.52219                                
  22962272.160 6  22962280.898 9                                 122703415.74316
  95436021.33919                                
  21173821.930 7  21173827.445 9                                 113106758.32617
  87972113.08919                                
  22755409.145 6  22755417.140 9                                 121768785.22216
  94709087.66619                                
  20447299.870 7  20447302.302 9                                 109149075.17817
  84893676.91419                                
  21741578.764 6                                                 116302790.07816
                                                
 23  9 21 18 36 45.0000000  0 22E03E05E08E13E15E34G02G10G18G21G23G24
                                G32R06R07R08R09R15R16R21R22R23
  23267648.041 7                                                 122272319.302 7
                                                
  26003088.742 5                                                 136647154.660 5
                                                
  24902712.193 7                                                 130864633.214 7
                                                
  24865220.542 6                                                 130667616.541 6
                                                
  24197746.078 7                                                 127160015.464 7
                                                
  27307478.224 5                                                 143501758.992 5
                                                
  24487637.947 4                                                 128683379.717 4
 100272810.64746                                  24487646.05146
  20299122.279 8  20299129.962 9  20299124.802 9                 106672561.000 8
  83121550.594 9  79658226.490 9                
  24259791.139 5  24259804.273 8  24259805.374 9                 127486012.891 5
  99339842.093 8  95200678.567 9                
  23608652.354 5                                                 124064304.749 5
  96673516.07746                                  23608660.57246
  21093391.425 6  21093398.343 9  21093397.846 9                 110846480.229 6
  86373957.554 9  82774924.482 9                
  21987237.004 5  21987247.348 9  21987243.153 9                 115543670.118 5
  90034110.274 9  86282540.904 9                
  21491675.773 7  21491684.722 9  21491679.624 9                 112939468.546 7
  88004863.586 9  84337963.166 9                
  20277171.457 3                                                 108202870.343 3
                                                
  19846827.231 8  19846830.349 9                                 106241620.707 8
  82632384.415 9                                
  22978039.214 3  22978047.507 9                                 123046375.837 3
  95702766.877 9                                
  22628369.338 6  22628376.416 9                                 120834243.781 6
  93982220.659 9                                
  22968111.713 6  22968120.384 9                                 122734622.215 6
  95460293.022 9                                
  21169445.215 7  21169451.122 9                                 113083382.329 7
  87953931.768 9                                
  22766782.326 7  22766789.605 9                                 121829642.314 7
  94756420.813 9                                
  20451448.863 7  20451452.140 9                                 109171224.658 7
  84910904.264 9                                
  21734079.106 6                                                 116262672.716 6
                                                
 23  9 21 18 37  0.0000000  0 22E03E05E08E13E15E34G02G10G18G21G23G24
                                G32R06R07R08R09R15R16R21R22R23
  23267621.223 7                                                 122272177.138 7
                                                
  26008539.416 4                                                 136675796.876 4
                                                
  24896266.608 7                                                 130830762.053 7
                                                
  24860621.109 6                                                 130643447.138 6
                                                
  24201675.407 7                                                 127180663.243 7
                                                
  27315738.067 5                                                 143545165.787 5
                                                
  24478883.285 5                                                 128637374.153 5
 100236962.21746                                  24478891.05346
  20296525.455 8  20296532.740 9  20296527.922 9                 106658913.860 8
  83110916.457 9  79648035.439 9                
  24269833.787 4  24269846.329 9  24269847.514 9                 127538785.475 4
  99380963.433 9  95240086.480 9                
  23601881.020 6                                                 124028720.694 6
  96645788.23247                                  23601888.57147
  21097822.197 6  21097829.378 9  21097829.082 9                 110869765.200 6
  86392101.645 9  82792312.563 9                
  21992834.763 5  21992845.269 9  21992841.323 9                 115573086.949 5
  90057032.440 9  86304507.979 9                
  21485217.891 7  21485226.505 9  21485221.916 9                 112905531.940 7
  87978419.484 9  84312620.906 9                
  20281220.728 3                                                 108224479.405 3
                                                
  19842355.641 8  19842358.478 9                                 106217684.688 8
  82613767.481 9                                
  22968240.621 3  22968248.961 9                                 122993903.436 3
  95661955.106 9                                
  22615922.103 6  22615929.972 9                                 120767778.992 6
  93930525.932 9                                
  22973971.196 6  22973979.601 9                                 122765934.016 6
  95484646.576 9                                
  21165096.055 7  21165102.102 9                                 113060150.815 7
  87935862.875 9                                
  22778153.416 7  22778160.510 9                                 121890491.146 7
  94803747.528 9                                
  20455623.251 7  20455626.509 9                                 109193509.038 7
  84928236.540 9                                
  21726603.393 6                                                 116222682.775 6
                                                
 23  9 21 18 37 15.0000000  0 22E03E05E08E13E15E34G02G10G18G21G23G24
                                G32R06R07R08R09R15R16R21R22R23
  23267594.814 7                                                 122272037.991 7
                                                
  26013982.420 3                                                 136704400.133 3
                                                
  24889819.606 7                                                 130796882.005 7
                                                
  24856030.689 6                                                 130619323.745 6
                                                
  24205612.126 7                                                 127201350.879 7
                                                
  27323990.609 5                                                 143588532.655 5
                                                
  24470133.035 4                                                 128591390.418 4
 100201130.76346                                  24470139.62346
  20293936.492 8  20293944.179 9  20293938.996 9                 106645309.137 8
  83100315.357 9  79637876.062 9                
  24279869.309 4  24279882.624 9  24279883.558 9                 127591524.630 4
  99422058.782 9  95279469.461 9                
  23595117.620 4                                                 123993177.599 4
  96618092.38746                                  23595125.00946
  21102259.810 7  21102267.146 9  21102266.791 9                 110893085.711 7
  86410273.437 9  82809727.175 9                
  21998445.877 5  21998456.689 9  21998452.405 9                 115602574.541 5
  90080009.725 9  86326527.864 9                
  21478763.697 7  21478772.490 9  21478767.991 9                 112871616.644 7
  87951991.980 9  84287294.592 9                
  20285273.288 2                                                 108246103.310 2
                                                
  19837889.640 8  19837892.649 9                                 106193775.788 8
  82595171.700 9                                
  22958437.252 5  22958444.935 9                                 122941402.865 5
  95621121.361 9                                
  22603475.918 6  22603483.503 8                                 120701314.769 6
  93878831.680 8                                
  22979850.102 6  22979858.727 9                                 122797346.686 6
  95509078.593 9                                
  21160773.711 7  21160779.131 9                                 113037060.006 7
  87917903.344 9                                
  22789522.385 6  22789529.814 9                                 121951326.876 6
  94851064.070 9                                
  20459822.931 8  20459826.162 9                                 109215923.916 8
  84945670.322 9                                
  21719150.316 6                                                 116182816.517 6
                                                
 23  9 21 18 37 30.0000000  0 22E03E05E08E13E15E34G02G10G18G21G23G24
                                G32R06R07R08R09R15R16R21R22R23
  23267568.852 7                                                 122271900.740 7
                                                
  26019417.646 4                                                 136732963.303 4
                                                
  24883370.201 7                                                 130762992.087 7
                                                
  24851448.557 6                                                 130595245.504 6
                                                
  24209556.228 7                                                 127222077.194 7
                                                
  27332235.510 5                                                 143631858.299 5
                                                
  24461387.079 4                                                 128545427.521 4
 100165315.55846                                  24461393.59046
  20291355.471 8  20291363.424 9  20291357.985 9                 106631745.778 8
  83089746.510 9  79627747.589 9                
  24289898.697 4  24289912.200 8  24289912.889 8                 127644229.054 4
  99463127.035 8  95318826.494 8                
  23588361.888 5                                                 123957674.670 5
  96590427.80447                                  23588368.96547
  21106704.229 6  21106711.559 9  21106710.984 9                 110916440.636 6
  86428472.051 9  82827167.514 9                
  22004070.755 6  22004081.186 9  22004076.806 9                 115632131.464 6
  90103041.099 9  86348599.562 9                
  21472313.820 7  21472322.397 9  21472317.860 9                 112837721.695 7
  87925580.340 9  84261983.447 9                
  20289328.447 3                                                 108267740.832 3
                                                
  19833428.020 8  19833431.622 9                                 106169892.971 8
  82576596.208 9                                
  22948627.550 4  22948635.443 9                                 122888873.236 4
  95580265.041 9                                
  22591028.590 6  22591036.463 8                                 120634850.483 6
  93827137.366 8                                
  22985747.088 6  22985755.562 9                                 122828858.684 6
  95533587.881 9                                
  21156477.366 7  21156482.995 9                                 113014108.947 7
  87900052.546 9                                
  22800888.202 6  22800895.328 9                                 122012147.948 6
  94898369.197 9                                
  20464046.215 7  20464049.340 9                                 109238467.889 7
  84963204.502 9                                
  21711721.002 6                                                 116143073.065 6
                                                
 23  9 21 18 37 45.0000000  0 22E03E05E08E13E15E34G02G10G18G21G23G24
                                G32R06R07R08R09R15R16R21R22R23
  23267542.412 7                                                 122271763.563 7
                                                
  26024845.226 5                                                 136761484.526 5
                                                
  24876918.793 7                                                 130729090.529 7
                                                
  24846874.812 6                                                 130571210.766 6
                                                
  24213507.284 7                                                 127242840.338 7
                                                
  27340472.223 5                                                 143675140.752 5
                                                
  24452644.296 5                                                 128499484.130 5
 100129515.54646                                  24452650.76846
  20288782.127 8  20288789.756 9  20288784.430 9                 106618222.355 8
  83079208.792 9  79617648.926 9                
  24299920.978 4  24299934.228 8  24299935.702 8                 127696896.658 4
  99504166.587 8  95358156.019 8                
  23581612.759 5                                                 123922210.223 5
  96562793.19147                                  23581620.14747
  21111155.006 6  21111162.201 9  21111161.594 9                 110939828.187 6
  86446696.079 9  82844632.201 9                
  22009707.805 5  22009718.297 9  22009714.064 9                 115661755.717 5
  90126124.860 9  86370721.527 9                
  21465867.505 7  21465876.194 9  21465871.361 9                 112803845.387 7
  87899183.259 9  84236686.213 9                
  20293385.518 3                                                 108289390.097 3
                                                
  19828970.993 8  19828974.550 9                                 106146034.449 8
  82558039.586 9                                
  22938812.634 5  22938819.884 9                                 122836312.548 5
  95539384.593 9                                
  22578581.746 6  22578589.958 9                                 120568384.989 6
  93775442.123 9                                
  22991662.421 6  22991671.078 9                                 122860467.721 6
  95558172.574 9                                
  21152206.654 7  21152212.603 9                                 112991296.030 7
  87882309.164 9                                
  22812250.902 6  22812258.280 9                                 122072951.886 6
  94945661.025 9                                
  20468292.808 8  20468295.839 9                                 109261138.782 8
  84980837.423 9                                
  21704313.989 6                                                 116103451.543 6
                                                
 23  9 21 18 38  0.0000000  0 22E03E05E08E13E15E34G02G10G18G21G23G24
                                G32R06R07R08R09R15R16R21R22R23
  23267515.778 7                                                 122271623.885 7
                                                
  26030264.394 4                                                 136789961.252 4
                                                
  24870465.306 7                                                 130695174.845 7
                                                
  24842308.423 6                                                 130547217.224 6
                                                
  24217464.814 7                                                 127263637.628 7
                                                
  27348699.732 5                                                 143718377.302 5
                                                
  24443904.286 5                                                 128453557.984 5
 100093728.94446                                  24443911.17446
  20286215.611 8  20286223.316 9  20286218.156 9                 106604736.371 8
  83068700.227 9  79607578.225 9                
  24309936.228 4  24309949.708 8  24309950.565 8                 127749524.609 4
  99545175.202 8  95397455.940 8                
  23574871.270 5                                                 123886782.187 5
  96535186.94747                                  23574878.52947
  21115610.972 6  21115618.562 9  21115617.969 9                 110963245.802 6
  86464943.525 9  82862119.330 9                
  22015357.418 5  22015367.794 9  22015363.149 9                 115691444.469 5
  90149258.929 9  86392891.648 9                
  21459423.998 7  21459433.005 9  21459427.861 9                 112769985.225 7
  87872798.739 9  84211401.056 9                
  20297444.218 3                                                 108311048.518 3
                                                
  19824518.069 8  19824521.592 9                                 106122197.722 8
  82539499.931 9                                
  22928990.396 5  22928998.861 9                                 122783718.465 5
  95498478.198 9                                
  22566134.029 6  22566141.533 9                                 120501916.209 6
  93723744.230 9                                
  22997595.320 6  22997603.967 9                                 122892170.958 6
  95582830.573 9                                
  21147961.468 7  21147967.206 9                                 112968619.012 7
  87864671.513 9                                
  22823610.078 6  22823617.561 9                                 122133735.712 6
  94992937.183 9                                
  20472563.549 8  20472566.360 9                                 109283933.661 8
  84998566.702 9                                
  21696929.756 6                                                 116063949.246 6
                                                
 23  9 21 18 38 15.0000000  0 22E03E05E08E13E15E34G02G10G18G21G23G24
                                G32R06R07R08R09R15R16R21R22R23
  23267488.849 7                                                 122271482.210 7
                                                
  26035675.439 4                                                 136818393.984 4
                                                
  24864008.434 7                                                 130661245.680 7
                                                
  24837750.944 6                                                 130523265.583 6
                                                
  24221429.200 7                                                 127284469.548 7
                                                
  27356919.471 5                                                 143761568.381 5
                                                
  24435168.329 5                                                 128407650.017 5
 100057956.47346                                  24435174.77246
  20283656.696 8  20283664.579 9  20283659.123 9                 106591288.608 8
  83058221.442 9  79597536.059 9                
  24319943.845 4  24319957.495 8  24319958.262 8                 127802113.183 4
  99586153.112 8  95436726.454 8                
  23568136.562 5                                                 123851391.386 5
  96507609.73447                                  23568143.45547
  21120072.840 6  21120080.524 9  21120079.716 9                 110986694.022 6
  86483214.834 9  82879629.318 9                
  22021019.294 5  22021029.633 9  22021025.219 9                 115721197.950 5
  90172443.437 9  86415110.122 9                
  21452984.013 7  21452992.717 9  21452987.804 9                 112736141.888 7
  87846427.317 9  84186128.461 9                
  20301505.390 2                                                 108332716.579 2
                                                
  19820069.116 8  19820072.904 9                                 106098383.257 8
  82520977.566 9                                
  22919162.804 5  22919170.739 9                                 122731091.777 5
  95457546.403 9                                
  22553686.094 6  22553694.024 9                                 120435445.223 6
  93672044.687 9                                
  23003545.606 6  23003554.275 9                                 122923968.735 6
  95607562.170 9                                
  21143742.426 7  21143747.319 9                                 112946078.683 7
  87847140.174 9                                
  22834965.474 6  22834972.256 9                                 122194499.559 6
  95040197.833 9                                
  20476857.276 8  20476860.376 9                                 109306852.822 8
  85016392.683 9                                
  21689567.661 6                                                 116024567.253 6
                                                
 23  9 21 18 38 30.0000000  0 22E03E05E08E13E15E34G02G10G18G21G23G24
                                G32R06R07R08R09R15R16R21R22R23
  23267461.098 7                                                 122271337.358 7
                                                
  26041076.763 4                                                 136846781.499 4
                                                
  24857549.109 7                                                 130627301.904 7
                                                
  24833201.127 6                                                 130499354.943 6
                                                
  24225399.667 7                                                 127305334.861 7
                                                
  27365129.591 5                                                 143804712.647 5
                                                
  24426435.816 5                                                 128361759.403 5
 100022197.61046                                  24426442.88246
  20281104.698 8  20281112.494 9  20281107.339 9                 106577878.137 8
  83047771.723 9  79587521.758 9                
  24329943.493 5  24329955.993 8  24329957.941 8                 127854660.991 5
  99627099.288 8  95475966.517 8                
  23561408.283 6                                                 123816036.872 6
  96480060.75946                                  23561415.44846
  21124540.691 6  21124548.195 9  21124547.015 9                 111010171.667 6
  86501509.070 9  82897161.307 9                
  22026692.813 4  22026703.737 9  22026699.168 9                 115751014.792 4
  90195677.303 9  86437375.919 9                
  21446546.814 7  21446555.355 9  21446550.905 9                 112702314.306 7
  87820068.166 9  84160867.646 9                
  20305566.522 2                                                 108354393.144 2
                                                
  19815624.697 8  19815628.050 9                                 106074590.265 8
  82502471.914 9                                
  22909329.065 5  22909336.311 9                                 122678431.505 5
  95416588.442 9                                
  22541237.888 6  22541245.511 9                                 120368971.662 6
  93620343.151 9                                
  23009513.537 6  23009522.096 9                                 122955859.213 6
  95632365.810 9                                
  21139547.756 7  21139553.248 9                                 112923674.347 7
  87829714.604 9                                
  22846316.882 6  22846323.775 9                                 122255241.769 6
  95087441.619 9                                
  20481173.913 8  20481176.726 9                                 109329894.866 8
  85034314.247 9                                
  21682227.648 6                                                 115985305.013 6
                                                
 23  9 21 18 38 45.0000000  0 22E03E05E08E13E15E34G02G10G18G21G23G24
                                G32R06R07R08R09R15R16R21R22R23
  23267433.638 7                                                 122271192.564 7
                                                
  26046469.844 3                                                 136875127.095 3
                                                
  24851087.641 7                                                 130593346.867 7
                                                
  24828659.762 6                                                 130475488.760 6
                                                
  24229377.206 7                                                 127326236.765 7
                                                
  27373331.340 5                                                 143847813.255 5
                                                
  24417706.842 5                                                 128315889.690 5
  99986455.00146                                  24417714.53946
  20278560.690 8  20278568.149 9  20278563.188 9                 106564508.382 8
  83037353.728 9  79577537.841 9                
  24339935.727 4  24339948.342 8  24339950.203 8                 127907170.986 4
  99668016.032 8  95515178.329 8                
  23554688.513 5                                                 123780722.111 5
  96452542.83047                                  23554696.15647
  21129014.523 6  21129022.334 9  21129021.117 9                 111033682.019 6
  86519828.771 9  82914717.695 9                
  22032379.577 4  22032390.617 9  22032385.915 9                 115780897.951 4
  90218962.813 9  86459691.199 9                
  21440113.288 7  21440121.750 9  21440117.260 9                 112668505.858 7
  87793723.946 9  84135621.098 9                
  20309631.160 3                                                 108376081.330 3
                                                
  19811184.499 8  19811187.323 9                                 106050821.994 8
  82483985.493 9                                
  22899489.580 6  22899496.905 9                                 122625740.757 6
  95375606.848 9                                
  22528789.255 6  22528797.153 9                                 120302499.370 6
  93568642.581 9                                
  23015499.945 6  23015507.679 9                                 122987845.718 6
  95657244.147 9                                
  21135379.531 7  21135385.278 9                                 112901409.518 7
  87812397.535 9                                
  22857663.741 6  22857671.956 9                                 122315964.952 6
  95134670.604 9                                
  20485513.985 7  20485516.499 9                                 109353062.758 7
  85052333.712 9                                
  21674911.218 6                                                 115946166.123 6
                                                
 23  9 21 18 39  0.0000000  0 22E03E05E08E13E15E34G02G10G18G21G23G24
                                G32R06R07R08R09R15R16R21R22R23
  23267405.784 7                                                 122271045.823 7
                                                
  26051855.849 2                                                 136903428.648 2
                                                
  24844623.574 7                                                 130559378.621 7
                                                
  24824125.932 6                                                 130451665.165 6
                                                
  24233361.246 7                                                 127347173.119 7
                                                
  27381523.820 5                                                 143890868.025 5
                                                
  24408982.004 5                                                 128270039.291 5
  99950727.44946                                  24408989.41246
  20276023.751 8  20276031.345 9  20276026.171 9                 106551177.705 8
  83026966.191 9  79567583.116 9                
  24349920.432 3  24349933.445 8  24349934.518 8                 127959640.799 3
  99708901.505 8  95554360.181 8                
  23547975.253 5                                                 123745445.412 5
  96425054.51046                                  23547983.90746
  21133494.331 6  21133501.943 9  21133501.015 9                 111057223.036 6
  86538172.374 9  82932296.980 9                
  22038078.336 4  22038089.268 9  22038085.221 9                 115810845.093 4
  90242298.223 9  86482054.294 9                
  21433683.046 7  21433691.742 9  21433686.739 9                 112634714.622 7
  87767393.115 9  84110387.395 9                
  20313697.652 3                                                 108397779.328 3
                                                
  19806748.417 8  19806751.804 9                                 106027076.640 8
  82465516.886 9                                
  22889643.591 5  22889651.548 9                                 122573017.777 5
  95334600.145 9                                
  22516341.005 6  22516349.374 9                                 120236026.825 6
  93516941.885 9                                
  23021503.017 6  23021511.198 9                                 123019925.650 6
  95682195.150 9                                
  21131237.597 7  21131243.074 9                                 112879282.426 7
  87795187.586 9                                
  22869008.518 6  22869015.222 9                                 122376666.788 6
  95181883.005 9                                
  20489877.197 8  20489880.561 9                                 109376354.128 8
  85070449.185 9                                
  21667617.464 6                                                 115907149.209 6
                                                
 23  9 21 18 39 15.0000000  0 22E03E05E08E13E15E34G02G10G18G21G23G24
                                G32R06R07R08R09R15R16R21R22R23
  23267378.275 7                                                 122270901.670 7
                                                
  26057234.088 2                                                 136931690.785 2
                                                
  24838158.291 7                                                 130525401.854 7
                                                
  24819601.584 6                                                 130427889.022 6
                                                
  24237352.961 7                                                 127368148.451 7
                                                
  27389709.251 5                                                 143933881.356 5
                                                
  24400260.853 5                                                 128224213.111 5
  99915018.78746                                  24400268.89046
  20273495.626 8  20273503.097 9  20273497.802 9                 106537890.757 8
  83016612.704 9  79557661.039 9                
  24359898.085 3  24359911.368 8  24359912.704 8                 128012074.910 3
  99749759.080 8  95593515.346 8                
  23541270.397 5                                                 123710211.691 5
  96397599.69447                                  23541278.66847
  21137980.912 6  21137988.645 9  21137986.937 9                 111080799.318 6
  86556543.483 9  82949902.604 9                
  22043790.073 4  22043801.715 9  22043797.274 9                 115840860.598 4
  90265686.892 9  86504468.419 9                
  21427256.931 7  21427265.723 9  21427260.653 9                 112600945.282 7
  87741079.354 9  84085170.053 9                
  20317766.576 3                                                 108419491.388 3
                                                
  19802317.686 8  19802321.097 9                                 106003358.840 8
  82447069.713 9                                
  22879793.527 5  22879799.716 9                                 122520267.365 5
  95293572.105 9                                
  22503894.234 6  22503901.440 9                                 120169559.555 6
  93465245.252 9                                
  23027524.489 5  23027532.904 9                                 123052103.277 5
  95707222.127 9                                
  21127121.942 7  21127126.749 9                                 112857297.917 7
  87778088.566 9                                
  22880348.231 5  22880355.753 9                                 122437351.353 5
  95229081.972 9                                
  20494264.488 7  20494267.789 9                                 109399773.371 7
  85088664.145 9                                
  21660347.418 6                                                 115868259.408 6
                                                
 23  9 21 18 39 30.0000000  0 22E03E05E08E13E15E34G02G10G18G21G23G24
                                G32R06R07R08R09R15R16R21R22R23
  23267351.828 7                                                 122270761.952 7
                                                
  26062605.696 2                                                 136959915.330 2
                                                
  24831691.253 7                                                 130491418.404 7
                                                
  24815086.329 6                                                 130404162.352 6
                                                
  24241352.122 7                                                 127389164.554 7
                                                
  27397887.148 5                                                 143976855.020 5
                                                
  24391545.620 5                                                 128178413.309 5
  99879330.67146                                  24391553.76146
  20270975.613 8  20270983.400 9  20270978.264 9                 106524649.479 8
  83006294.837 9  79547773.063 9                
  24369869.683 2  24369882.676 8  24369884.579 8                 128064474.820 2
  99790590.047 8  95632644.981 8                
  23534574.188 4                                                 123675022.958 4
  96370179.97346                                  23534582.67246
  21142473.947 6  21142482.133 9  21142480.514 9                 111104412.674 6
  86574943.472 9  82967535.935 9                
  22049514.787 3  22049526.602 9  22049522.468 9                 115870946.019 3
  90289130.048 9  86526934.760 9                
  21420835.331 7  21420844.034 9  21420839.276 9                 112567199.798 7
  87714784.218 9  84059970.517 9                
  20321837.865 2                                                 108441219.606 2
                                                
  19797892.539 8  19797896.608 9                                 105979670.432 8
  82428645.400 9                                
  22869937.808 6  22869944.095 8                                 122467491.526 6
  95252524.310 8                                
  22491448.057 6  22491456.434 9                                 120103099.954 6
  93413554.547 9                                
  23033563.661 4  23033573.169 9                                 123084380.167 4
  95732326.276 9                                
  21123033.450 7  21123039.038 9                                 112835458.262 7
  87761102.230 9                                
  22891685.415 5  22891693.117 8                                 122498020.212 5
  95276268.762 8                                
  20498676.119 7  20498678.710 9                                 109423321.995 7
  85106979.717 9                                
  21653101.320 6                                                 115829498.756 6
                                                
 23  9 21 18 39 45.0000000  0 22E03E05E08E13E15E34G02G10G18G21G23G24
                                G32R06R07R08R09R15R16R21R22R23
  23267326.807 7                                                 122270629.151 7
                                                
  26067970.346 1                                                 136988104.742 1
                                                
  24825223.679 7                                                 130457430.910 7
                                                
  24810581.365 6                                                 130380487.864 6
                                                
  24245359.463 7                                                 127410223.850 7
                                                
  27406057.801 5                                                 144019791.350 5
                                                
  24382835.951 6                                                 128132642.786 6
  99843665.33446                                  24382843.60946
  20268465.173 8  20268472.696 9  20268467.778 9                 106511456.617 8
  82996014.693 9  79537921.254 9                
  24379835.642 2  24379848.640 8  24379850.031 8                 128116842.842 2
  99831396.156 8  95671750.789 8                
  23527887.386 5                                                 123639882.101 5
  96342797.51047                                  23527894.92347
  21146974.933 7  21146983.060 9  21146981.796 9                 111128065.681 7
  86593374.335 9  82985198.859 9                
  22055253.927 5  22055265.532 9  22055261.285 9                 115901103.636 5
  90312629.466 9  86549455.017 9                
  21414418.811 7  21414427.632 9  21414422.749 9                 112533480.757 7
  87688509.645 9  84034790.747 9                
  20325913.299 2                                                 108462966.154 2
                                                
  19793473.515 8  19793477.159 9                                 105956014.338 8
  82410246.205 9                                
  22860077.473 5  22860084.887 8                                 122414692.681 5
  95211458.617 8                                
  22479004.007 6  22479012.416 9                                 120036650.926 6
  93361872.132 9                                
  23039623.356 5  23039632.818 9                                 123116758.544 5
  95757509.396 9                                
  21118972.815 7  21118978.672 9                                 112813766.367 7
  87744230.774 9                                
  22903020.528 5  22903028.213 8                                 122558675.311 5
  95323444.785 8                                
  20503112.479 8  20503114.998 9                                 109447002.337 8
  85125397.750 9                                
  21645880.308 6                                                 115790870.374 6
                                                
 23  9 21 18 40  0.0000000  0 22E03E05E08E13E15E34G02G10G18G21G23G24
                                G32R06R07R08R09R15R16R21R22R23
  23267301.971 7                                                 122270499.172 7
                                                
  26073326.805 2                                                 137016254.891 2
                                                
  24818754.486 7                                                 130423435.361 7
                                                
  24806085.032 6                                                 130356861.693 6
                                                
  24249374.335 7                                                 127431322.143 7
                                                
  27414221.043 4                                                 144062686.111 4
                                                
  24374131.331 6                                                 128086897.850 6
  99808019.95046                                  24374138.40846
  20265963.003 8  20265970.844 9  20265965.841 9                 106498308.362 8
  82985769.291 9  79528102.748 9                
  24389794.397 2  24389806.541 8  24389808.814 8                 128169174.525 2
  99872173.952 8  95710829.476 8                
  23521208.219 6                                                 123604785.137 6
  96315449.25047                                  23521216.03547
  21151483.065 7  21151491.032 9  21151489.304 9                 111151754.183 7
  86611832.893 9  83002888.301 9                
  22061005.461 4  22061016.738 9  22061012.404 9                 115931329.056 4
  90336181.673 9  86572025.881 9                
  21408006.527 7  21408015.225 9  21408010.416 9                 112499784.180 7
  87662252.582 9  84009627.743 9                
  20329991.797 2                                                 108484727.380 2
                                                
  19789059.801 8  19789063.183 9                                 105932386.295 8
  82391868.853 9                                
  22850212.994 6  22850219.954 9                                 122361867.173 6
  95170372.205 9                                
  22466561.858 6  22466569.327 9                                 119970208.916 6
  93310195.134 9                                
  23045701.020 5  23045709.692 9                                 123149234.112 5
  95782768.101 9                                
  21114939.073 7  21114944.067 9                                 112792218.178 7
  87727471.085 9                                
  22914351.762 5  22914359.492 8                                 122619311.953 5
  95370606.478 8                                
  20507572.268 7  20507575.001 9                                 109470809.867 7
  85143914.667 9                                
  21638683.113 6                                                 115752370.484 6
                                                
 23  9 21 18 40 15.0000000  0 22E03E05E08E13E15E34G02G10G18G21G23G24
                                G32R06R07R08R09R15R16R21R22R23
  23267276.567 7                                                 122270367.150 7
                                                
  26078676.254 3                                                 137044360.934 3
                                                
  24812283.036 6                                                 130389427.001 6
                                                
  24801597.697 6                                                 130333279.192 6
                                                
  24253395.724 7                                                 127452454.522 7
                                                
  27422375.000 4                                                 144105534.293 4
                                                
  24365430.091 5                                                 128041173.882 5
  99772390.91746                                  24365436.60646
  20263468.804 8  20263476.079 9  20263471.594 9                 106485200.107 8
  82975555.056 9  79518314.110 9                
  24399745.132 2  24399756.991 8  24399759.614 8                 128221464.838 2
  99912919.510 8  95749877.266 8                
  23514537.202 6                                                 123569727.596 6
  96288131.73146                                  23514544.49746
  21155996.921 6  21156004.948 9  21156003.035 9                 111175473.344 6
  86630315.314 9  83020600.630 9                
  22066769.075 5  22066780.393 9  22066775.938 9                 115961617.135 5
  90359782.750 9  86594643.594 9                
  21401597.657 7  21401606.361 9  21401601.476 9                 112466105.342 7
  87636009.354 9  83984477.993 9                
  20334071.460 2                                                 108506497.953 2
                                                
  19784649.924 8  19784653.436 9                                 105908781.466 8
  82373509.531 9                                
  22840341.992 6  22840348.245 9                                 122309009.909 6
  95129261.018 9                                
  22454119.044 6  22454127.732 9                                 119903769.990 6
  93258520.545 9                                
  23051795.187 5  23051803.661 8                                 123181801.368 5
  95808098.178 8                                
  21110931.072 7  21110936.695 9                                 112770808.944 7
  87710819.511 9                                
  22925678.791 5  22925686.607 8                                 122679924.963 5
  95417749.768 8                                
  20512054.726 7  20512057.786 9                                 109494739.371 7
  85162526.496 9                                
  21631509.213 6                                                 115713994.499 6
                                                
 23  9 21 18 40 30.0000000  0 22E03E05E08E13E15E34G02G10G18G21G23G24
                                G32R06R07R08R09R15R16R21R22R23
  23267251.598 7                                                 122270236.022 7
                                                
  26084016.881 2                                                 137072425.831 2
                                                
  24805809.432 7                                                 130355408.805 7
                                                
  24797119.043 6                                                 130309743.502 6
                                                
  24257424.082 7                                                 127473623.849 7
                                                
  27430520.446 4                                                 144148338.695 4
                                                
  24356734.165 5                                                 127995474.099 5
  99736780.76446                                  24356741.01746
  20260982.399 8  20260989.984 9  20260985.290 9                 106472134.947 8
  82965374.399 9  79508557.660 9                
  24409688.156 1  24409700.893 8  24409703.351 8                 128273716.440 1
  99953634.896 8  95788896.111 8                
  23507874.085 6                                                 123534712.767 6
  96260847.45347                                  23507880.90647
  21160516.944 6  21160524.684 9  21160523.192 9                 111199226.100 6
  86648823.932 9  83038338.054 9                
  22072545.494 5  22072556.808 9  22072551.905 9                 115991970.616 5
  90383434.765 9  86617310.100 9                
  21395192.539 7  21395201.558 9  21395196.622 9                 112432447.285 7
  87609782.310 9  83959343.755 9                
  20338153.791 3                                                 108528280.972 3
                                                
  19780245.140 8  19780248.731 9                                 105885202.858 8
  82355170.646 9                                
  22830466.218 6  22830472.104 8                                 122256124.331 6
  95088127.890 8                                
  22441679.200 6  22441686.269 9                                 119837337.494 6
  93206850.979 9                                
  23057908.133 6  23057915.936 8                                 123214463.009 6
  95833501.580 8                                
  21106950.018 7  21106955.020 9                                 112749542.329 7
  87694278.824 9                                
  22937002.610 5  22937010.478 8                                 122740516.578 5
  95464876.403 8                                
  20516560.792 7  20516564.214 9                                 109518793.598 7
  85181235.288 9                                
  21624359.186 6                                                 115675746.172 6
                                                
 23  9 21 18 40 45.0000000  0 22E03E05E08E13E15E34G02G10G18G21G23G24
                                G32R06R07R08R09R15R16R21R22R23
  23267227.005 7                                                 122270105.676 7
                                                
  26089349.153 2                                                 137100449.446 2
                                                
  24799333.874 7                                                 130321380.793 7
                                                
  24792649.043 6                                                 130286254.766 6
                                                
  24261459.776 7                                                 127494829.963 7
                                                
  27438657.461 4                                                 144191099.124 4
                                                
  24348041.938 5                                                 127949798.931 5
  99701189.78446                                  24348049.84446
  20258504.520 8  20258512.023 9  20258507.147 9                 106459112.867 8
  82955227.337 9  79498833.382 9                
  24419624.226 1  24419635.764 7  24419639.205 8                 128325928.992 1
  99994319.892 7  95827885.832 8                
  23501218.989 5                                                 123499740.822 5
  96233596.62047                                  23501225.63047
  21165043.028 6  21165050.918 9  21165049.238 9                 111223012.391 6
  86667358.679 9  83056100.518 9                
  22078334.125 4  22078345.348 9  22078340.430 9                 116022389.092 4
  90407137.454 9  86640025.176 9                
  21388791.776 7  21388800.609 9  21388795.416 9                 112398809.902 7
  87583571.365 9  83934224.938 9                
  20342237.334 2                                                 108550076.207 2
                                                
  19775845.601 8  19775849.289 9                                 105861650.819 8
  82336852.407 9                                
  22820584.708 6  22820590.472 9                                 122203210.132 6
  95046972.443 9                                
  22429239.638 7  22429246.945 9                                 119770912.098 7
  93155186.894 9                                
  23064037.473 6  23064046.088 8                                 123247218.515 6
  95858978.020 8                                
  21102994.902 7  21103000.534 9                                 112728418.354 7
  87677849.092 9                                
  22948321.523 5  22948329.255 8                                 122801086.367 5
  95511986.097 8                                
  20521090.432 7  20521093.589 9                                 109542972.041 7
  85200040.744 9                                
  21617232.529 6                                                 115637625.621 6
                                                
 23  9 21 18 41  0.0000000  0 22E03E05E08E13E15E34G02G10G18G21G23G24
                                G32R06R07R08R09R15R16R21R22R23
  23267203.344 7                                                 122269980.636 7
                                                
  26094674.132 2                                                 137128436.261 2
                                                
  24792857.585 7                                                 130287347.542 7
                                                
  24788189.528 6                                                 130262817.722 6
                                                
  24265502.889 7                                                 127516077.323 7
                                                
  27446786.545 4                                                 144233819.961 4
                                                
  24339355.777 5                                                 127904153.175 5
  99665621.73246                                  24339363.02846
  20256035.602 8  20256043.411 9  20256038.215 9                 106446138.740 8
  82945117.633 9  79489144.919 9                
