     2.11           OBSERVATION DATA    Mixed(MIXED)        RINEX VERSION / TYPE
cnvtToRINEX 3.14.0  convertToRINEX OPR  20230925 141910 UTC PGM / RUN BY / DATE 
----------------------------------------------------------- COMMENT             
1 coleman                                                   MARKER NAME         
                                                            MARKER NUMBER       
GNSS Observer       Trimble                                 OBSERVER / AGENCY   
6309F01906          TRIMBLE R12i        6.21                REC # / TYPE / VERS 
                    TRMR12I         NONE                    ANT # / TYPE        
   110032.8174 -4346680.2903  4650957.7387                  APPROX POSITION XYZ 
        2.0500        0.0000        0.0000                  ANTENNA: DELTA H/E/N
     1     1     0                                          WAVELENGTH FACT L1/2
     9    C1    C2    C5    C8    L1    L2    L5    L8    P2# / TYPES OF OBSERV 
    15.000                                                  INTERVAL            
  2023     9    21    18    43   30.0000000     GPS         TIME OF FIRST OBS   
  2023     9    21    20    52   45.0000000     GPS         TIME OF LAST OBS    
     0                                                      RCV CLOCK OFFS APPL 
    18                                                      LEAP SECONDS        
    35                                                      # OF SATELLITES     
   E02   306     0     0   306   306     0     0   306     0PRN / # OF OBS      
   E03   506     0     0   506   506     0     0   506     0PRN / # OF OBS      
   E05   223     0     0   223   223     0     0   223     0PRN / # OF OBS      
   E07   215     0     0   223   215     0     0   223     0PRN / # OF OBS      
   E08   518     0     0   518   518     0     0   518     0PRN / # OF OBS      
   E13   518     0     0   518   518     0     0   518     0PRN / # OF OBS      
   E15   425     0     0   425   425     0     0   425     0PRN / # OF OBS      
   E24   298     0     0   289   297     0     0   288     0PRN / # OF OBS      
   E25   174     0     0   174   174     0     0   174     0PRN / # OF OBS      
   E26   344     0     0   345   344     0     0   345     0PRN / # OF OBS      
   E34    23     0     0    23    23     0     0    23     0PRN / # OF OBS      
   G02   475     0     0     0   471   426     0     0   428PRN / # OF OBS      
   G03    37    23    40     0    37    23    39     0     0PRN / # OF OBS      
   G10   518   517   517     0   517   517   517     0     0PRN / # OF OBS      
   G12   358   351     0     0   358   351     0     0     0PRN / # OF OBS      
   G18    10     9     9     0     9     9     9     0     0PRN / # OF OBS      
   G21   512     0     0     0   511   506     0     0   506PRN / # OF OBS      
   G23   349   337   345     0   347   337   345     0     0PRN / # OF OBS      
   G24   255   254   254     0   254   254   254     0     0PRN / # OF OBS      
   G28   518   517   517     0   517   517   517     0     0PRN / # OF OBS      
   G31   311   311     0     0   311   311     0     0     0PRN / # OF OBS      
   G32   518   517   517     0   517   517   517     0     0PRN / # OF OBS      
   R01    93    82     0     0    92    80     0     0     0PRN / # OF OBS      
   R06   173     0     0     0   173     0     0     0     0PRN / # OF OBS      
   R07   507   505     0     0   506   503     0     0     0PRN / # OF OBS      
   R08   500   500     0     0   500   500     0     0     0PRN / # OF OBS      
   R09   496   483     0     0   495   482     0     0     0PRN / # OF OBS      
   R10   374     0     0     0   374     0     0     0     0PRN / # OF OBS      
   R11    40    40     0     0    40    40     0     0     0PRN / # OF OBS      
   R15    30    24     0     0    29    24     0     0     0PRN / # OF OBS      
   R16   445   445     0     0   444   445     0     0     0PRN / # OF OBS      
   R21    35    35     0     0    35    35     0     0     0PRN / # OF OBS      
   R22   299   299     0     0   299   299     0     0     0PRN / # OF OBS      
   R23   494     0     0     0   494     0     0     0     0PRN / # OF OBS      
   R24   349   334     0     0   346   333     0     0     0PRN / # OF OBS      
CARRIER PHASE MEASUREMENTS: PHASE SHIFTS REMOVED            COMMENT             
                                                            END OF HEADER       
 23  9 21 18 43 30.0000000  0 22E03E05E08E13E15E24E34G10G18G21G23G24
                                G28G32R06R07R09R15R16R21R22R23
  23321668.416 7                                                 122556192.86617
                                                
  26202476.037 6                                                 137694937.82416
                                                
  24782387.587 7                                                 130232324.12817
                                                
  24798380.563 6                                                 130316370.24416
                                                
  24360969.536 7                                                 128017756.29817
                                                
  27404520.027 6                                                 144011720.88816
                                                
  27582610.031 6                                                 144947589.88416
                                                
  20286472.249 7                                                
                                                
  24583436.921 4                                                
                                                
  23482786.987 1                                                
                                                
  21270295.233 5                                                
                                                
  22197701.409 6                                                
                                                
  24237755.816 6                                                
                                                
  21373101.466 7                                                
                                                
  20442192.334 2                                                 109083453.74112
                                                
  19782210.348 8  19782213.739 9                                 105895697.09318
  82363540.82419                                
  22347687.139 6  22347693.459 9                                 119335401.60416
  92816451.14619                                
  23187249.420 5  23187256.939 8                                 123905630.56315
  96370962.29518                                
  21116279.316 7  21116284.291 9                                 112799370.95917
  87732869.13419                                
  23127278.542 6  23127286.199 9                                 123758722.15216
  96256824.57619                                
  20626875.599 8  20626878.395 9                                 110107662.11518
  85639308.74119                                
  21594703.944 5                                                 115517117.18415
                                                
 23  9 21 18 43 45.0000000  0 21E03E05E08E13E15E24E34G10G18G23G24G28
                                G32R06R07R09R15R16R21R22R23
  23320387.774 7                                                 122549461.737 7
                                                
  26206456.582 6                                                 137715855.769 6
                                                
  24774632.942 7                                                 130191572.127 7
                                                
  24792763.237 6                                                 130286850.426 6
                                                
  24363829.865 7                                                 128032787.634 7
                                                
  27399520.921 6                                                 143985451.431 6
                                                
  27589386.091 6                                                 144983199.880 6
                                                
  20282838.922 8  20282846.574 9  20282840.861 9                 106586999.472 8
  83054876.23219  79594352.12719                
  24592022.256 4  24592034.851 9  24592035.972 9                 129231926.210 4
 100700266.70919  96504420.31319                
  21273640.454 5  21273647.432 7  21273644.872 8                 111793704.259 5
  87112051.15417  83482295.32518                
  22202376.641 5  22202387.380 9  22202383.099 9                 116674253.373 5
  90915068.55119  87126817.142 9                
  24224043.983 6  24224055.882 9  24224056.860 9                 127298148.288 6
  99193458.50419  95060393.38419                
  21365491.228 7  21365499.967 9  21365494.267 9                 112276378.404 7
  87488160.15419  83842783.80319                
  20445047.281 3                                                 109098686.118 3
                                                
  19776614.155 8  19776617.147 9                                 105865738.562 8
  82340239.741 9                                
  22334013.905 6  22334021.127 9                                 119262388.464 6
  92759663.294 9                                
  23192325.962 4  23192333.782 8                                 123932757.813 4
  96392061.190 8                                
  21111390.059 7  21111395.192 9                                 112773252.844 7
  87712555.047 9                                
  23137284.219 6  23137292.163 9                                 123812262.291 6
  96298466.770 9                                
  20630422.051 7  20630425.377 9                                 110126593.229 7
  85654032.907 9                                
  21586612.092 5                                                 115473832.321 5
                                                
 23  9 21 18 44  0.0000000  0 22E03E05E08E13E15E24E34G02G10G18G23G24
                                G28G32R06R07R09R15R16R21R22R23
  23319107.288 7                                                 122542733.680 7
                                                
  26210430.136 6                                                 137736734.637 6
                                                
  24766876.860 7                                                 130150813.722 7
                                                
  24787155.793 6                                                 130257382.613 6
                                                
  24366697.387 7                                                 128047857.095 7
                                                
  27394531.076 5                                                 143959231.014 5
                                                
  27596154.435 6                                                 145018766.499 6
                                                
  24287198.154 1                                                 127630051.64311
                                                
  20279214.943 8  20279222.279 9  20279216.543 9                 106567953.813 8
  83040035.477 9  79580129.738 9                
  24600598.643 2  24600612.235 9  24600613.056 8                 129276999.123 2
 100735388.254 9  96538078.418 8                
  21276992.386 4  21276999.905 8  21276997.677 8                 111811320.872 4
  87125778.396 8  83495450.521 8                
  22207063.110 6  22207073.722 9  22207069.907 9                 116698881.427 6
  90934259.232 9  87145208.205 9                
  24210326.489 5  24210338.697 9  24210339.227 9                 127226062.865 5
  99137288.185 9  95006563.520 9                
  21357885.785 7  21357894.818 9  21357889.142 9                 112236412.767 7
  87457018.118 9  83812939.351 9                
  20447904.869 3                                                 109113932.921 3
                                                
  19771023.139 8  19771026.013 9                                 105835810.040 8
  82316962.030 9                                
  22320344.035 6  22320350.079 9                                 119189393.043 6
  92702889.210 9                                
  23197419.582 4  23197428.401 8                                 123959976.738 4
  96413231.366 8                                
  21106528.690 7  21106533.503 9                                 112747283.362 7
  87692356.564 9                                
  23147284.494 6  23147291.909 9                                 123865776.995 6
  96340089.163 9                                
  20633991.348 7  20633994.961 9                                 110145646.884 7
  85668852.374 9                                
  21578545.297 6                                                 115430683.122 6
                                                
 23  9 21 18 44 15.0000000  0 22E03E05E08E13E15E24E34G02G10G18G23G24
                                G28G32R06R07R09R15R16R21R22R23
  23317827.577 7                                                 122536009.985 7
                                                
  26214395.746 6                                                 137757575.783 6
                                                
  24759119.518 7                                                 130110050.296 7
                                                
  24781558.366 6                                                 130227968.347 6
                                                
  24369572.523 7                                                 128062965.955 7
                                                
  27389551.137 5                                                 143933061.135 5
                                                
  27602914.777 6                                                 145054290.896 6
                                                
  24277321.861 1                                                 127578150.720 1
                                                
  20275600.239 8  20275607.450 9  20275601.789 9                 106548957.963 8
  83025233.516 9  79565944.515 9                
  24609167.734 2  24609181.843 8  24609183.065 8                 129322033.119 2
 100770479.494 8  96571707.502 8                
  21280351.964 2  21280359.441 8  21280357.923 8                 111828974.631 2
  87139534.525 8  83508633.506 8                
  22211761.867 5  22211772.475 9  22211769.269 9                 116723574.509 5
  90953500.545 9  87163647.794 9                
  24196603.482 5  24196615.292 9  24196615.975 9                 127153948.346 5
  99081095.183 9  94952711.910 9                
  21350285.592 7  21350294.604 9  21350288.892 9                 112196473.153 7
  87425896.354 9  83783114.339 9                
  20450764.389 3                                                 109129195.324 3
                                                
  19765438.116 8  19765441.063 9                                 105805913.311 8
  82293708.998 9                                
  22306677.440 6  22306684.030 9                                 119116416.771 6
  92646129.987 9                                
  23202530.485 4  23202539.122 9                                 123987288.355 4
  96434473.758 9                                
  21101694.831 7  21101700.150 9                                 112721463.845 7
  87672274.742 9                                
  23157280.081 5  23157288.737 9                                 123919267.158 5
  96381692.454 9                                
  20637584.500 7  20637587.401 9                                 110164824.203 7
  85683768.027 9                                
  21570505.314 6                                                 115387671.420 6
                                                
 23  9 21 18 44 30.0000000  0 23E03E05E08E13E15E24E34G02G10G18G23G24
                                G28G32R06R07R08R09R15R16R21R22R23
  23316549.069 7                                                 122529291.628 7
                                                
  26218354.730 6                                                 137778380.139 6
                                                
  24751361.721 7                                                 130069282.882 7
                                                
  24775971.202 6                                                 130198608.795 6
                                                
  24372455.373 7                                                 128078115.063 7
                                                
  27384580.504 5                                                 143906942.955 5
                                                
  27609667.309 6                                                 145089773.927 6
                                                
  24267454.098 1                                                 127526284.35311
                                                
  20271995.047 8  20272002.141 9  20271996.472 9                 106530013.125 8
  83010471.274 9  79551797.363 9                
  24617730.446 1  24617744.539 8  24617745.681 8                 129367028.998 1
 100805540.992 8  96605308.065 8                
  21283717.996 1  21283725.753 8  21283723.758 8                 111846666.489 1
  87153320.450 8  83521844.954 8                
  22216473.315 5  22216483.859 9  22216480.589 9                 116748333.209 5
  90972793.033 9  87182136.393 9                
  24182875.008 5  24182886.384 9  24182887.956 9                 127081805.999 5
  99024880.479 9  94898839.539 9                
  21342690.767 7  21342698.989 9  21342693.903 9                 112156560.602 7
  87394795.690 9  83753309.541 9                
  20453628.093 3                                                 109144474.350 3
                                                
  19759859.285 8  19759862.540 9                                 105776049.096 8
  82270481.290 9                                
  22720921.982 1  22720924.525 7                                 121669533.10211
  94631889.58517                                
  22293015.846 6  22293022.429 9                                 119043461.662 6
  92589387.224 9                                
  23207659.029 5  23207667.121 8                                 124014693.449 5
  96455788.802 8                                
  21096890.124 7  21096894.998 9                                 112695795.627 7
  87652310.604 9                                
  23167272.039 5  23167280.550 9                                 123972733.218 5
  96423276.985 9                                
  20641200.144 7  20641203.351 9                                 110184125.798 7
  85698780.322 9                                
  21562490.562 6                                                 115344798.569 6
                                                
 23  9 21 18 44 45.0000000  0 23E03E05E08E13E15E24E34G02G10G18G23G24
                                G28G32R06R07R08R09R15R16R21R22R23
  23315272.047 7                                                 122522580.747 7
                                                
  26222307.428 6                                                 137799149.899 6
                                                
  24743603.916 7                                                 130028513.740 7
                                                
  24770395.261 6                                                 130169306.284 6
                                                
  24375345.867 7                                                 128093306.478 7
                                                
  27379620.218 5                                                 143880878.732 5
                                                
  27616411.782 6                                                 145125217.604 6
                                                
  24257588.706 2                                                 127474454.709 2
                                                
  20268399.876 8  20268407.498 9  20268401.718 9                 106511121.649 8
  82995750.630 9  79537690.102 9                
  24626286.544 2  24626300.438 8  24626301.798 9                 129411988.556 2
 100840574.208 8  96638881.531 9                
  21287092.707 1  21287098.451 7  21287099.388 8                 111864398.666 1
  87167137.608 7  83535086.472 8                
  22221197.782 6  22221208.195 9  22221205.005 9                 116773159.426 6
  90992138.113 9  87200675.434 9                
  24169141.331 5  24169153.366 9  24169154.705 9                 127009638.367 5
  98968646.066 9  94844948.293 9                
  21335101.280 7  21335109.665 9  21335104.304 9                 112116677.411 7
  87363717.877 9  83723526.660 9                
  20456495.134 3                                                 109159772.219 3
                                                
  19754286.679 8  19754289.914 9                                 105746219.757 8
  82247280.708 9                                
  22709703.226 2  22709703.867 7                                 121609461.647 2
  94585167.359 7                                
  22279357.497 6  22279364.858 9                                 118970530.551 6
  92532663.109 9                                
  23212805.499 5  23212812.579 8                                 124042193.623 5
  96477177.745 8                                
  21092113.793 7  21092118.603 9                                 112670281.070 7
  87632465.948 9                                
  23177259.545 5  23177268.154 8                                 124026176.915 5
  96464844.131 8                                
  20644839.293 7  20644842.566 9                                 110203553.530 7
  85713890.764 9                                
  21554502.534 6                                                 115302067.086 6
                                                
 23  9 21 18 45  0.0000000  0 23E03E05E08E13E15E24E34G02G10G18G23G24
                                G28G32R06R07R08R09R15R16R21R22R23
  23313996.369 7                                                 122515876.892 7
                                                
  26226253.018 6                                                 137819884.568 6
                                                
  24735844.919 7                                                 129987742.521 7
                                                
  24764829.547 6                                                 130140060.644 6
                                                
  24378244.823 7                                                 128108539.732 7
                                                
  27374671.287 5                                                 143854868.354 5
                                                
  27623149.086 6                                                 145160621.309 6
                                                
  24247733.995 1                                                 127422661.941 1
                                                
  20264815.267 8  20264822.769 9  20264816.885 9                 106492282.879 8
  82981071.061 9  79523622.173 9                
  24634834.861 3  24634849.051 8  24634850.244 9                 129456911.168 3
 100875578.675 8  96672427.410 9                
  21290474.152 1  21290480.575 7  21290481.465 8                 111882170.660 1
  87180985.97717  83548357.763 8                
  22225934.764 5  22225945.442 9  22225941.606 9                 116798052.518 5
  91011535.325 9  87219264.404 9                
  24155403.835 5  24155415.905 9  24155416.486 9                 126937445.368 5
  98912391.957 9  94791038.103 9                
  21327517.238 7  21327525.277 9  21327520.469 9                 112076823.248 7
  87332662.707 9  83693765.448 9                
  20459364.954 2                                                 109175088.423 2
                                                
  19748720.799 8  19748723.849 9                                 105716425.080 8
  82224107.047 9                                
  22698481.411 3  22698483.400 8                                 121549370.257 3
  94538429.795 8                                
  22265705.170 6  22265710.893 9                                 118897623.298 6
  92475957.576 9                                
  23217969.077 3  23217976.305 8                                 124069788.181 3
  96498640.145 8                                
  21087365.839 7  21087370.741 9                                 112644919.898 7
  87612740.615 9                                
  23187241.526 6  23187250.672 9                                 124079597.445 6
  96506393.326 9                                
  20648502.621 8  20648505.451 9                                 110223106.500 8
  85729098.569 9                                
  21546540.472 6                                                 115259477.096 6
                                                
 23  9 21 18 45 15.0000000  0 23E03E05E08E13E15E24E34G10G18G21G23G24
                                G28G32R06R07R08R09R15R16R21R22R23
  23312722.477 7                                                 122509180.779 7
                                                
  26230192.130 6                                                 137840584.863 6
                                                
  24728086.428 7                                                 129946969.980 7
                                                
  24759275.387 6                                                 130110872.719 6
                                                
  24381151.089 7                                                 128123815.425 7
                                                
  27369732.070 5                                                 143828912.672 5
                                                
  27629878.909 5                                                 145195985.658 5
                                                
  20261240.680 8  20261248.016 9  20261242.368 9                 106473498.216 8
  82966433.653 9  79509594.663 9                
  24643376.872 5  24643390.914 8  24643391.903 9                 129501797.273 5
 100910554.675 8  96705946.069 9                
  23428312.935 2                                                 123116714.38412
                                                
  21293863.348 1  21293871.306 8  21293872.015 8                 111899983.306 1
  87194865.912 8  83561659.301 8                
  22230684.712 5  22230695.492 9  22230691.429 9                 116823012.880 5
  91030984.927 9  87237903.609 9                
  24141661.144 6  24141672.805 9  24141674.257 9                 126865228.106 6
  98856118.915 9  94737109.785 9                
  21319939.152 7  21319947.265 9  21319942.372 9                 112036998.947 7
  87301630.767 9  83664026.541 9                
  20462238.294 2                                                 109190423.618 2
                                                
  19743161.822 8  19743165.070 9                                 105686665.978 8
  82200961.124 9                                
  22687256.129 2  22687258.729 7                                 121489260.180 2
  94491677.549 7                                
  22252056.460 6  22252062.899 8                                 118824741.408 6
  92419271.748 8                                
  23223151.462 3  23223158.476 8                                 124097477.390 3
  96520176.153 8                                
  21082647.164 7  21082652.016 9                                 112619713.334 7
  87593135.526 9                                
  23197220.264 5  23197229.371 8                                 124132995.102 5
  96547924.608 8                                
  20652188.899 8  20652192.133 9                                 110242785.228 8
  85744404.209 9                                
  21538605.345 6                                                 115217029.726 6
                                                
 23  9 21 18 45 30.0000000  0 24E03E05E08E13E15E24E34G02G10G18G21G23
                                G24G28G32R06R07R08R09R15R16R21R22R23
  23311450.337 7                                                 122502496.541 7
                                                
  26234125.355 6                                                 137861254.921 6
                                                
  24720328.162 7                                                 129906200.347 7
                                                
  24753732.954 6                                                 130081746.913 6
                                                
  24384067.379 7                                                 128139137.594 7
                                                
  27364803.884 5                                                 143803015.908 5
                                                
  27636601.686 5                                                 145231314.665 5
                                                
  24228043.179 1                                                
                                                
  20257677.021 8  20257684.739 9  20257678.864 9                 106454771.927 8
  82951841.733 9  79495610.739 9                
  24651911.702 5  24651926.060 8  24651927.517 9                 129546650.779 5
 100945505.276 8  96739440.365 9                
  23420574.160 1                                                 123076039.908 1
                                                
  21297261.809 1  21297267.974 7  21297271.419 8                 111917840.734 1
  87208780.64917  83574994.295 8                
  22235448.051 5  22235458.477 9  22235454.685 9                 116848044.395 5
  91050489.962 9  87256595.923 9                
  24127914.928 6  24127926.418 9  24127927.273 9                 126792991.086 6
  98799830.462 9  94683166.703 9                
  21312367.018 7  21312375.365 9  21312370.519 9                 111997208.718 7
  87270625.425 9  83634313.057 9                
  20465116.963 2                                                 109205782.038 2
                                                
  19737609.767 8  19737612.880 9                                 105656946.604 8
  82177846.047 9                                
  22676028.620 1  22676030.923 7                                 121429135.623 1
  94444914.034 7                                
  22238413.470 6  22238419.641 9                                 118751889.688 6
  92362609.420 9                                
  23228351.668 4  23228359.169 7                                 124125265.338 4
  96541788.884 7                                
  21077957.919 7  21077963.204 9                                 112594665.646 7
  87573653.977 9                                
  23207195.321 6  23207204.328 8                                 124186373.521 6
  96589440.970 8                                
  20655899.994 8  20655902.843 9                                 110262593.469 8
  85759810.609 9                                
  21530698.075 7                                                 115174729.570 7
                                                
 23  9 21 18 45 45.0000000  0 24E03E05E08E13E15E24E34G02G10G18G21G23
                                G24G28G32R06R07R08R09R15R16R21R22R23
  23310180.224 7                                                 122495822.339 7
                                                
  26238052.584 6                                                 137881892.855 6
                                                
  24712569.812 7                                                 129865431.868 7
                                                
  24748201.944 6                                                 130052681.546 6
                                                
  24386991.651 7                                                 128154504.337 7
                                                
  27359887.385 5                                                 143777176.492 5
                                                
  27643317.215 5                                                 145266606.319 5
                                                
  24218212.089 1                                                 127267527.13611
                                                
  20254123.939 8  20254132.023 9  20254126.235 9                 106436102.323 8
  82937293.987 9  79481669.150 9                
  24660440.586 5  24660455.089 8  24660456.239 8                 129591469.586 5
 100980428.884 8  96772908.748 8                
  23412844.955 1                                                 123035422.866 1
                                                
  21300668.755 1  21300671.646 7  21300676.450 7                 111935740.90811
  87222728.86717  83588361.274 7                
  22240224.432 6  22240234.810 9  22240230.976 9                 116873144.940 6
  91070048.793 9  87275339.791 9                
  24114164.657 6  24114176.229 9  24114177.098 9                 126720732.846 6
  98743525.483 9  94629207.756 9                
  21304801.122 7  21304809.640 9  21304804.464 9                 111957450.816 7
  87239645.236 9  83604623.733 9                
  20467998.754 2                                                 109221161.661 2
                                                
  19732065.390 8  19732068.312 9                                 105627265.242 8
  82154760.556 9                                
  22664797.310 4  22664800.391 7                                 121368994.723 4
  94398137.898 7                                
  22224775.580 6  22224782.464 9                                 118679066.868 6
  92305969.553 9                                
  23233569.420 2  23233576.387 8                                 124153149.760 2
  96563476.658 8                                
  21073298.753 7  21073303.171 9                                 112569775.171 7
  87554294.749 9                                
  23217166.535 6  23217174.903 8                                 124239730.289 6
  96630940.553 8                                
  20659634.303 7  20659637.447 9                                 110282529.174 7
  85775316.117 9                                
  21522817.296 6                                                 115132575.141 6
                                                
 23  9 21 18 46  0.0000000  0 23E03E05E08E13E15E24E34G02G10G21G23G24
                                G28G32R06R07R08R09R15R16R21R22R23
  23308912.037 7                                                 122489159.285 7
                                                
  26241974.130 6                                                 137902499.897 6
                                                
  24704812.269 7                                                 129824665.788 7
                                                
  24742682.965 6                                                 130023677.968 6
                                                
  24389924.447 7                                                 128169916.732 7
                                                
  27354980.817 5                                                 143751395.712 5
                                                
  27650026.353 4                                                 145301861.684 4
                                                
  24208387.555 1                                                 127215897.877 1
                                                
  20250582.793 8  20250590.554 9  20250584.612 9                 106417490.685 8
  82922791.398 9  79467770.849 9                
  23405126.594 2                                                 122994865.070 2
                                                
  21304084.018 1  21304090.065 7  21304088.527 7                 111953684.95111
  87236711.17317  83601761.176 7                
  22245014.022 5  22245024.490 9  22245020.904 9                 116898315.352 5
  91089662.083 9  87294135.853 9                
  24100410.551 6  24100422.098 9  24100423.005 9                 126648454.897 6
  98687205.157 9  94575234.109 9                
  21297241.970 7  21297250.360 9  21297245.124 9                 111917726.546 7
  87208691.281 9  83574959.534 9                
  20470885.258 2                                                 109236563.890 2
                                                
  19726527.541 8  19726530.714 9                                 105597623.211 8
  82131705.648 9                                
  22653563.188 3  22653567.795 8                                 121308839.188 3
  94351350.338 8                                
  22211144.116 6  22211150.745 9                                 118606274.947 6
  92249353.721 9                                
  23238806.010 1  23238813.075 8                                 124181131.048 1
  96585239.898 8                                
  21068668.770 7  21068673.294 9                                 112545043.470 7
  87535059.001 9                                
  23227133.675 6  23227142.556 8                                 124293066.383 6
  96672424.076 8                                
  20663393.372 8  20663396.176 9                                 110302593.045 8
  85790921.300 9                                
  21514964.663 6                                                 115090567.891 6
                                                
 23  9 21 18 46 15.0000000  0 22E03E05E08E13E15E24E34G02G10G21G24G28
                                G32R06R07R08R09R15R16R21R22R23
  23307646.051 7                                                 122482505.787 7
                                                
  26245889.158 6                                                 137923074.366 6
                                                
  24697054.971 7                                                 129783900.543 7
                                                
  24737175.126 6                                                 129994734.775 6
                                                
  24392866.059 7                                                 128185373.042 7
                                                
  27350085.577 5                                                 143725672.160 5
                                                
  27656728.129 4                                                 145337078.974 4
                                                
  24198570.052 1                                                 127164309.754 1
                                                
  20247052.008 8  20247059.506 9  20247053.717 9                 106398935.707 8
  82908332.985 9  79453914.859 9                
  23397420.312 3                                                 122954365.122 3
                                                
  22249816.661 5  22249826.993 9  22249823.894 9                 116923553.800 5
  91109328.362 9  87312982.712 9                
  24086652.595 6  24086663.934 8  24086664.721 9                 126576155.981 6
  98630868.479 8  94521244.846 9                
  21289688.963 7  21289696.916 9  21289691.934 9                 111878034.366 7
  87177762.311 9  83545319.288 9                
  20473775.827 3                                                 109251986.854 3
                                                
  19720997.265 8  19721000.916 9                                 105568018.747 8
  82108679.964 9                                
  22642327.560 3  22642330.787 8                                 121248667.136 3
  94304549.961 8                                
  22197517.690 6  22197524.332 9                                 118533512.925 6
  92192761.094 9                                
  23244060.532 3  23244068.143 8                                 124209207.661 3
  96607077.195 8                                
  21064068.143 7  21064073.011 9                                 112520468.916 7
  87515945.457 9                                
  23237097.224 6  23237104.757 8                                 124346379.502 6
  96713889.619 8                                
  20667175.401 7  20667178.477 9                                 110322783.068 7
  85806624.613 9                                
  21507139.187 6                                                 115048706.663 6
                                                
 23  9 21 18 46 30.0000000  0 22E03E05E08E13E15E24E34G02G10G21G24G28
                                G32R06R07R08R09R15R16R21R22R23
  23306381.491 7                                                 122475861.998 7
                                                
  26249798.791 6                                                 137943616.425 6
                                                
  24689297.978 7                                                 129743136.367 7
                                                
  24731679.206 6                                                 129965852.329 6
                                                
  24395815.385 7                                                 128200873.369 7
                                                
  27345200.809 4                                                 143700006.187 4
                                                
  27663422.597 3                                                 145372258.230 3
                                                
  24188760.730 1                                                 127112763.14611
                                                
  20243531.727 8  20243539.496 9  20243533.574 9                 106380437.615 8
  82893918.881 9  79440101.338 9                
  23389724.666 4                                                 122913923.493 4
  95777041.08755                                  23389731.50445
  22254632.375 5  22254642.782 9  22254639.678 9                 116948860.139 5
  91129047.543 9  87331880.241 9                
  24072890.840 6  24072901.602 8  24072902.333 9                 126503836.650 6
  98574515.889 8  94467240.301 9                
  21282141.984 7  21282149.757 9  21282144.892 9                 111838374.515 7
  87146858.564 9  83515703.197 9                
  20476670.129 3                                                 109267430.775 3
                                                
  19715474.032 7  19715477.644 9                                 105538452.327 7
  82085683.857 9                                
  22631087.282 4  22631089.571 7                                 121188478.929 4
  94257736.975 7                                
  22183897.547 6  22183903.487 8                                 118460781.374 6
  92136192.209 8                                
  23249332.065 4  23249339.617 8                                 124237379.139 4
  96628988.261 8                                
  21059497.385 7  21059502.772 9                                 112496051.994 7
  87496954.536 9                                
  23247055.808 6  23247065.120 9                                 124399669.605 6
  96755337.304 9                                
  20670981.144 7  20670984.615 9                                 110343099.215 7
  85822426.014 9                                
  21499340.876 6                                                 115006991.836 6
                                                
 23  9 21 18 46 45.0000000  0 22E03E05E08E13E15E24E34G02G10G21G24G28
                                G32R06R07R08R09R15R16R21R22R23
  23305119.322 7                                                 122469228.395 7
                                                
  26253702.030 6                                                 137964126.609 6
                                                
  24681540.862 7                                                 129702373.882 7
                                                
  24726194.510 6                                                 129937031.331 6
                                                
  24398773.689 7                                                 128216418.133 7
                                                
  27340327.584 5                                                 143674398.364 5
                                                
  27670110.396 4                                                 145407399.771 4
                                                
  24178958.599 1                                                 127061258.92111
                                                
  20240022.807 8  20240030.264 9  20240024.670 9                 106361997.295 8
  82879549.800 9  79426330.971 9                
  23382039.159 4                                                 122873540.684 4
  95745573.99146                                  23382046.94246
  22259461.019 5  22259471.506 9  22259468.208 9                 116974234.628 5
  91148819.816 9  87350828.676 9                
  24059125.105 6  24059135.876 8  24059136.832 9                 126431497.757 6
  98518147.989 8  94413221.148 9                
  21274601.617 7  21274609.432 9  21274604.127 9                 111798747.691 7
  87115980.561 9  83486111.737 9                
  20479567.979 3                                                 109282896.133 3
                                                
  19709958.267 8  19709961.965 9                                 105508924.499 8
  82062717.801 9                                
  22619843.727 1  22619848.423 8                                 121128275.181 1
  94210911.938 8                                
  22170283.216 6  22170288.766 9                                 118388081.310 6
  92079647.786 9                                
  23254621.349 3  23254630.020 8                                 124265645.639 3
  96650973.260 8                                
  21054955.933 7  21054960.720 9                                 112471793.583 7
  87478086.854 9                                
  23257010.380 6  23257018.604 8                                 124452936.523 6
  96796767.023 8                                
  20674811.459 7  20674814.212 9                                 110363541.566 7
  85838325.561 9                                
  21491569.848 6                                                 114965424.498 6
                                                
 23  9 21 18 47  0.0000000  0 22E03E05E08E13E15E24E34G02G10G21G24G28
                                G32R06R07R08R09R15R16R21R22R23
  23303859.648 7                                                 122462608.353 7
                                                
  26257599.482 6                                                 137984608.224 6
                                                
  24673785.416 7                                                 129661616.481 7
                                                
  24720722.606 6                                                 129908275.338 6
                                                
  24401740.952 7                                                 128232010.586 7
                                                
  27335466.630 5                                                 143648852.359 5
                                                
  27676790.408 4                                                 145442506.919 4
                                                
  24169167.240 1                                                 127009800.79411
                                                
  20236525.076 8  20236532.672 9  20236527.178 9                 106343618.198 8
  82865228.418 9  79412606.306 9                
  23374367.086 3                                                 122833220.507 3
  95714155.71646                                  23374373.73946
  22264303.031 5  22264313.951 9  22264310.314 9                 116999680.309 5
  91168647.601 9  87369830.293 9                
  24045356.187 5  24045366.682 8  24045368.027 8                 126359143.042 5
  98461767.777 8  94359190.198 8                
  21267067.792 7  21267075.265 9  21267070.397 9                 111759157.294 7
  87085130.876 9  83456547.487 9                
  20482470.771 2                                                 109298386.279 2
                                                
  19704449.925 8  19704453.737 9                                 105479438.830 8
  82039784.525 9                                
  22608598.797 1  22608604.276 8                                 121068059.806 1
  94164077.891 8                                
  22156676.182 6  22156681.411 9                                 118315417.172 6
  92023131.329 9                                
  23259929.325 3  23259937.296 8                                 124294010.228 3
  96673034.522 8                                
  21050445.401 7  21050450.587 9                                 112447696.962 7
  87459345.072 9                                
  23266960.752 5  23266969.971 9                                 124506183.226 5
  96838180.974 9                                
  20678664.770 7  20678667.811 9                                 110384113.179 7
  85854325.667 9                                
  21483827.943 6                                                 114924008.519 6
                                                
 23  9 21 18 47 15.0000000  0 23E03E05E08E13E15E24E34G02G10G21G23G24
                                G28G32R06R07R08R09R15R16R21R22R23
  23302603.715 7                                                 122456008.011 7
                                                
  26261492.876 6                                                 138005067.449 6
                                                
  24666031.469 7                                                 129620870.445 7
                                                
  24715263.894 6                                                 129879590.722 6
                                                
  24404718.277 7                                                 128247656.822 7
                                                
  27330618.504 5                                                 143623374.505 5
                                                
  27683466.010 4                                                 145477585.600 4
                                                
  24159383.580 1                                                 126958395.608 1
                                                
  20233040.461 8  20233048.375 9  20233042.548 9                 106325306.670 8
  82850959.683 9  79398932.111 9                
  23366707.557 4                                                 122792969.411 4
  95682791.27546                                  23366714.00346
  21321282.321 1                                                 112044049.01611
                                                
  22269160.272 5  22269170.926 9  22269167.149 9                 117025203.106 5
  91188535.461 9  87388889.496 9                
  24031585.638 5  24031596.620 9  24031597.461 8                 126286779.099 5
  98405380.331 9  94305152.277 8                
  21259541.549 7  21259549.409 9  21259544.871 9                 111719609.579 7
  87054314.459 9  83427015.125 9                
  20485379.855 2                                                 109313907.545 2
                                                
  19698950.657 8  19698954.111 9                                 105450001.574 8
  82016888.885 9                                
  22597352.252 1  22597357.860 8                                 121007836.78011
  94117239.277 8                                
  22143075.877 6  22143082.051 8                                 118242795.304 6
  91966647.751 8                                
  23265257.064 3  23265263.073 7                                 124322478.839 3
  96695176.644 7                                
  21045966.184 7  21045971.001 9                                 112423768.909 7
  87440734.360 9                                
  23276908.530 6  23276917.335 8                                 124559415.499 6
  96879583.663 8                                
  20682543.770 7  20682546.971 9                                 110404820.049 7
  85870430.991 9                                
  21476114.859 6                                                 114882750.520 6
                                                
 23  9 21 18 47 30.0000000  0 23E03E05E08E13E15E24E34G02G10G21G23G24
                                G28G32R06R07R08R09R15R16R21R22R23
  23301351.383 7                                                 122449425.771 7
                                                
  26265381.488 6                                                 138025502.695 6
                                                
  24658279.597 7                                                 129580134.250 7
                                                
  24709819.047 6                                                 129850976.052 6
                                                
  24407705.589 7                                                 128263355.130 7
                                                
  27325782.702 5                                                 143597963.304 5
                                                
  27690136.067 4                                                 145512634.068 4
                                                
  24149615.598 1                                                 126907041.728 1
                                                
  20229569.179 7  20229576.460 9  20229570.811 9                 106307061.348 7
  82836742.549 9  79385307.352 9                
  23359060.513 5                                                 122752786.058 5
  95651479.63746                                  23359067.25646
  21324750.150 1                                                 112062270.936 1
                                                
  22274031.626 5  22274041.841 9  22274038.104 9                 117050801.141 5
  91208481.972 9  87408004.872 9                
  24017813.150 5  24017824.501 9  24017825.095 8                 126214404.599 5
  98348984.779 9  94251106.493 8                
  21252023.972 7  21252031.641 9  21252026.980 9                 111680103.091 7
  87023530.199 9  83397513.550 9                
  20488294.253 2                                                 109329458.160 2
                                                
  19693460.364 8  19693463.867 9                                 105420611.479 8
  81994029.930 9                                
  22586105.295 1  22586108.775 7                                 120947608.709 1
  94070395.304 7                                
  22129483.805 6  22129490.017 9                                 118170215.109 6
  91910196.580 9                                
  23270603.856 1                                                 124351049.388 1
                                                
  21041517.729 7  21041522.709 9                                 112400007.981 7
  87422253.633 9                                
  23286853.376 6  23286861.290 8                                 124612631.418 6
  96920973.656 8                                
  20686447.905 7  20686451.388 9                                 110425660.165 7
  85886639.976 9                                
  21468431.692 6                                                 114841649.254 6
                                                
 23  9 21 18 47 45.0000000  0 23E03E05E08E13E15E24E34G02G10G21G23G24
                                G28G32R06R07R08R09R15R16R21R22R23
  23300100.489 7                                                 122442852.235 7
                                                
  26269263.938 6                                                 138045904.535 6
                                                
  24650527.873 7                                                 129539398.542 7
                                                
  24704384.939 6                                                 129822422.128 6
                                                
  24410701.124 7                                                 128279096.033 7
                                                
  27320958.190 5                                                 143572609.621 5
                                                
  27696797.746 4                                                 145547642.908 4
                                                
  24139850.850 1                                                 126855730.17611
                                                
  20226107.976 7  20226115.036 9  20226109.820 9                 106288872.887 7
  82822569.716 9  79371725.065 9                
  23351425.048 5                                                 122712661.253 5
  95620213.53546                                  23351431.34946
  21328225.552 1                                                 112080534.422 1
                                                
  22278915.329 5  22278925.939 9  22278921.909 9                 117076464.721 5
  91228479.556 9  87427169.208 9                
  24004037.050 6  24004048.208 9  24004049.148 8                 126142010.578 6
  98292573.995 9  94197046.133 8                
  21244512.141 8  21244520.110 9  21244515.229 9                 111640628.520 8
  86992770.808 9  83368035.794 9                
  20491211.900 3                                                 109345028.704 3
                                                
  19687977.206 8  19687980.053 9                                 105391258.702 8
  81971199.994 9                                
  22574856.146 2  22574861.046 8                                 120887364.294 2
  94023538.597 8                                
  22115898.355 6  22115904.605 9                                 118097667.561 6
  91853770.769 9                                
  23275968.032 1  23275974.499 7                                 124379712.086 1
  96739689.19917                                
  21037099.482 7  21037103.882 9                                 112376404.746 7
  87403895.556 9                                
  23296793.430 6  23296801.623 8                                 124665820.856 6
  96962343.082 8                                
  20690375.306 7  20690378.212 9                                 110446623.483 7
  85902944.751 9                                
  21460775.827 5                                                 114800695.452 5
                                                
 23  9 21 18 48  0.0000000  0 21E03E05E08E13E15E24E34G10G21G23G24G28
                                G32R06R07R08R09R16R21R22R23
  23298851.741 7                                                 122436289.486 7
